ACCNUM,YEAR,DATE,TIME,STREET1,STREET2,ROAD_CLASS,DISTRICT,WARDNUM,LATITUDE,LONGITUDE,LOCCOORD,ACCLOC,TRAFFCTL,VISIBILITY,LIGHT,RDSFCOND,ACCLASS,IMPACTYPE,INVTYPE,INVAGE,INJURY
882024,2006,2006/01/07 05:00:00+00,2325,STEELES AVE E,NINTH LINE ST,Minor Arterial,Scarborough,25,43.842745,-79.22479,Mid-Block,Intersection Related,No Control,Clear,Dark,Wet,Fatal,Approaching,Driver,50,Fatal
882497,2006,2006/01/08 05:00:00+00,1828,ISLINGTON AVE,GOLFDOWN DR,Major Arterial,Etobicoke York,1,43.721445,-79.55809,Intersection,At Intersection,Pedestrian Crossover,Clear,Dark,Dry,Fatal,Pedestrian Collisions,Pedestrian,53,Non-Fatal
882174,2006,2006/01/09 05:00:00+00,1435,KENNEDY RD,GLAMORGAN AVE,Major Arterial,Scarborough,21,43.769445,-79.28229,Intersection,At Intersection,Traffic Signal,Clear,Daylight,Dry,Fatal,Pedestrian Collisions,Pedestrian,75,Non-Fatal
882501,2006,2006/01/11 05:00:00+00,1120,BARTLEY DR,JINNAH CRT,Collector,North York,16,43.722045,-79.30799,Intersection,Intersection Related,No Control,Clear,Daylight,Wet,Fatal,SMV Other,Passenger,17,Fatal
886230,2006,2006/01/21 05:00:00+00,1829,MIDLAND AVE,GOODLAND GT,Major Arterial,Scarborough,2223,43.779345,-79.27559,Intersection,At Intersection,No Control,Clear,Dusk,Dry,Fatal,Pedestrian Collisions,Pedestrian,52,Fatal
884560,2006,2006/01/24 05:00:00+00,145,WARDEN AVE,LAWRENCE AVE E,Major Arterial,Scarborough,21,43.745345,-79.29469,Intersection,Intersection Related,Traffic Signal,Clear,Dawn,Dry,Fatal,Angle,Driver,37,Fatal
884756,2006,2006/01/24 05:00:00+00,754,DEAN PARK RD,BRAYMORE BLVD,Collector,Scarborough,25,43.803445,-79.17069,Intersection,At Intersection,Stop Sign,Clear,Daylight,Wet,Fatal,Pedestrian Collisions,Pedestrian,77,Fatal
884714,2006,2006/01/24 05:00:00+00,2220,MOUNT PLEASANT RD,WHITEHALL RD,Major Arterial,Toronto and East York,11,43.684045,-79.38349,Intersection,At Intersection,No Control,Rain,Dark,Wet,Fatal,Turning Movement,Driver,45,Non-Fatal
885650,2006,2006/01/29 05:00:00+00,2048,F G GARDINER XY W  W,KIPLING AVE,Non-Fatal,Etobicoke York,3,43.618245,-79.52439,Mid-Block,Intersection Related,No Control,Rain,Dark,Wet,Fatal,Pedestrian Collisions,Pedestrian,18,Fatal
888497,2006,2006/02/15 05:00:00+00,935,WESTWOOD AVE,WOODYCREST AVE,Local,Toronto and East York,14,43.687345,-79.34469,Intersection,At Intersection,Stop Sign,Clear,Daylight,Dry,Fatal,Pedestrian Collisions,Pedestrian,72,Non-Fatal
889218,2006,2006/02/20 05:00:00+00,1840,NEILSON RD,MCLEVIN AVE,Minor Arterial,Scarborough,2325,43.808145,-79.21999,Mid-Block,Intersection Related,No Control,Clear,Dusk,Dry,Fatal,Pedestrian Collisions,Pedestrian,82,Fatal
890506,2006,2006/02/27 05:00:00+00,501,MARTIN GROVE RD,RACINE RD,Major Arterial,Etobicoke York,1,43.717145,-79.58259,Mid-Block,Intersection Related,No Control,Clear,Dark,Dry,Fatal,Pedestrian Collisions,Pedestrian,32,Fatal
891993,2006,2006/03/06 05:00:00+00,2222,F G GARDINER XY  W,PARK LAWN RD,Non-Fatal,Etobicoke York,3,43.627745,-79.48149,Mid-Block,Intersection Related,No Control,Clear,Dark,Dry,Fatal,Sideswipe,Passenger,18,Fatal
892453,2006,2006/03/08 05:00:00+00,2018,F G GARDINER XY E  E,KIPLING AVE,Non-Fatal,Etobicoke York,3,43.618845,-79.52039,Mid-Block,Intersection Related,No Control,Clear,Dark,Dry,Fatal,Rear End,Passenger,7,Fatal
892658,2006,2006/03/11 05:00:00+00,852,BLOOR ST W,DUNDAS ST W,Major Arterial,Toronto and East York,4,43.656345,-79.45249,Intersection,At Intersection,Traffic Signal,Clear,Daylight,Dry,Fatal,Pedestrian Collisions,Pedestrian,72,Non-Fatal
892810,2006,2006/03/11 05:00:00+00,915,MORNINGSIDE AVE,SHEPPARD AVE E,Major Arterial,Scarborough,25,43.801943,-79.199786,Intersection,At Intersection,Traffic Signal,Clear,Daylight,Dry,Fatal,Turning Movement,Motorcycle Driver,72,Non-Fatal
892682,2006,2006/03/12 05:00:00+00,240,EGLINTON AVE E,COMMONWEALTH AVE,Major Arterial,Scarborough,2120,43.734945,-79.25619,Mid-Block,Intersection Related,No Control,Clear,Dark,Dry,Fatal,Pedestrian Collisions,Pedestrian,42,Fatal
893251,2006,2006/03/15 05:00:00+00,1535,ISLINGTON AVE,DIXON RD,Major Arterial,Etobicoke York,12,43.697045,-79.54669,Intersection,At Intersection,Traffic Signal,Clear,Daylight,Dry,Fatal,Pedestrian Collisions,Pedestrian,20,Non-Fatal
897664,2006,2006/04/15 04:00:00+00,2000,YONGE ST,BREADALBANE ST,Major Arterial,Toronto and East York,13,43.663745,-79.38409,Intersection,Intersection Related,No Control,Clear,Dark,Dry,Fatal,Pedestrian Collisions,Pedestrian,42,Fatal
897916,2006,2006/04/18 04:00:00+00,1930,WARDEN AVE,COMSTOCK RD,Major Arterial,Scarborough,20,43.721545,-79.28499,Intersection,At Intersection,Traffic Signal,Clear,Daylight,Dry,Fatal,Angle,Passenger,32,Fatal
898340,2006,2006/04/20 04:00:00+00,843,AVENUE RD,CORTLEIGH BLVD,Major Arterial,North York,8,43.713045,-79.41179,Intersection,At Intersection,No Control,Clear,Daylight,Dry,Fatal,Cyclist Collisions,Cyclist,48,Fatal
898350,2006,2006/04/20 04:00:00+00,2053,KEELE ST,FINCH AVE W,Major Arterial,Etobicoke York,76,43.763445,-79.49099,Intersection,At Intersection,Traffic Signal,Clear,Dark,Dry,Fatal,Cyclist Collisions,Cyclist,18,Fatal
900120,2006,2006/04/29 04:00:00+00,2136,MILLWICK DR,MILVAN DR,Collector,Etobicoke York,7,43.758145,-79.55959,Mid-Block,Intersection Related,No Control,Clear,Dark,Dry,Fatal,SMV Other,Passenger,42,Fatal
900159,2006,2006/04/30 04:00:00+00,857,QUEEN ST E,FatalLLINGBROOK RD,Collector,Scarborough,20,43.675345,-79.27639,Intersection,At Intersection,Stop Sign,Clear,Daylight,Dry,Fatal,SMV Other,Driver,7,Fatal
900756,2006,2006/05/03 04:00:00+00,1032,DUNDAS ST W,SHAW ST,Major Arterial,Toronto and East York,1110,43.649845,-79.41829,Intersection,At Intersection,Traffic Signal,Clear,Daylight,Dry,Fatal,Pedestrian Collisions,Pedestrian,32,Non-Fatal
903449,2006,2006/05/17 04:00:00+00,1810,STILECROFT DR,SENTINEL RD,Local,North York,6,43.750745,-79.49259,Mid-Block,Intersection Related,No Control,Rain,Daylight,Wet,Fatal,Pedestrian Collisions,Pedestrian,58,Fatal
904456,2006,2006/05/23 04:00:00+00,1840,BATHURST ST,GLENCAIRN AVE,Major Arterial,North York,8,43.712345,-79.42809,Intersection,At Intersection,Traffic Signal,Clear,Daylight,Dry,Fatal,Pedestrian Collisions,Pedestrian,22,Non-Fatal
905761,2006,2006/05/30 04:00:00+00,2328,ROSEDALE VALLEY RD,BAYVIEW AVE,Minor Arterial,Toronto and East York,1113,43.671645,-79.36609,Mid-Block,Intersection Related,No Control,Clear,Dark,Dry,Fatal,SMV Other,Motorcycle Driver,72,Fatal
906207,2006,2006/06/02 04:00:00+00,734,KINGSTON RD,DUNDAS ST E,Major Arterial,Toronto and East York,19,43.669945,-79.31119,Intersection,Intersection Related,Traffic Signal,Clear,Daylight,Dry,Fatal,Pedestrian Collisions,Pedestrian,32,Fatal
906767,2006,2006/06/05 04:00:00+00,1906,BLOOR ST W,HAVELOCK ST,Major Arterial,Toronto and East York,9,43.660445,-79.43239,Intersection,At Intersection,Traffic Signal,Clear,Daylight,Dry,Fatal,Pedestrian Collisions,Pedestrian,85,Non-Fatal
907646,2006,2006/06/10 04:00:00+00,934,MIDLAND AVE,ROMULUS DR,Major Arterial,Scarborough,21,43.747045,-79.26339,Mid-Block,Intersection Related,No Control,Clear,Daylight,Dry,Fatal,SMV Other,Passenger,82,Fatal
909261,2006,2006/06/19 04:00:00+00,1208,LAKE SHORE BLVD W,FIFTH ST,Major Arterial,Etobicoke York,3,43.601245,-79.50299,Intersection,At Intersection,Traffic Signal,Clear,Daylight,Dry,Fatal,Pedestrian Collisions,Pedestrian,72,Non-Fatal
909409,2006,2006/06/20 04:00:00+00,2055,BARTLEY DR,TISDALE AVE,Collector,North York,16,43.722245,-79.30709,Intersection,At Intersection,Stop Sign,Clear,Dark,Dry,Fatal,SMV Unattended Vehicle,Motorcycle Driver,77,Fatal
914314,2006,2006/07/19 04:00:00+00,2230,BLOOR ST W,LANSDOWNE AVE,Major Arterial,Toronto and East York,9,43.658345,-79.44269,Intersection,At Intersection,Traffic Signal,Clear,Dark,Dry,Fatal,Pedestrian Collisions,Pedestrian,72,Non-Fatal
914846,2006,2006/07/23 04:00:00+00,1357,VICTORIA PARK AVE,BISCAYNE BLVD,Major Arterial,North York,1621,43.729145,-79.30449,Intersection,Intersection Related,No Control,Rain,Daylight,Wet,Fatal,Pedestrian Collisions,Pedestrian,52,Fatal
915991,2006,2006/07/28 04:00:00+00,1626,ISLINGTON AVE,DIXON RD,Major Arterial,Etobicoke York,2,43.694445,-79.54549,Mid-Block,Intersection Related,No Control,Clear,Daylight,Dry,Fatal,Pedestrian Collisions,Pedestrian,42,Fatal
916024,2006,2006/07/30 04:00:00+00,2155,F G GARDINER XY Ramp W,GARDINER W S KINGSWAY RAMP,Major Arterial,Toronto and East York,4,43.634645,-79.47159,Exit Ramp Westbound,Intersection Related,No Control,Clear,Dark,Dry,Fatal,SMV Other,Motorcycle Driver,37,Non-Fatal
916630,2006,2006/08/01 04:00:00+00,2345,NEILSON RD,WICKSON TRL,Minor Arterial,Scarborough,2325,43.802045,-79.21779,Intersection,At Intersection,Traffic Signal,Clear,Dark,Dry,Fatal,Pedestrian Collisions,Pedestrian,63,Non-Fatal
917154,2006,2006/08/03 04:00:00+00,130,JANE ST,FOXWELL ST,Major Arterial,Etobicoke York,5,43.672145,-79.49399,Mid-Block,Intersection Related,No Control,Rain,Dark,Wet,Fatal,Pedestrian Collisions,Pedestrian,7,Fatal
919332,2006,2006/08/18 04:00:00+00,1639,SCARBOROUGH GOLF CLUB RD,BRIMORTON DR,Minor Arterial,Scarborough,24,43.769845,-79.21869,Intersection,Intersection Related,Traffic Signal,Clear,Daylight,Dry,Fatal,Approaching,Passenger,72,Fatal
919330,2006,2006/08/18 04:00:00+00,2100,BELLAMY RD N,PROGRESS AVE,Minor Arterial,Scarborough,24,43.780145,-79.24379,Intersection,At Intersection,Traffic Signal,Clear,Dark,Dry,Fatal,Turning Movement,Passenger,72,Fatal
919641,2006,2006/08/19 04:00:00+00,1335,ELLESMERE RD,POLLARD DR,Major Arterial,Scarborough,21,43.758345,-79.31299,Intersection,Intersection Related,No Control,Clear,Daylight,Dry,Fatal,Pedestrian Collisions,Pedestrian,72,Fatal
919516,2006,2006/08/19 04:00:00+00,2345,QUEEN ST E,LESLIE ST,Minor Arterial,Toronto and East York,14,43.663245,-79.33019,Intersection,At Intersection,Traffic Signal,Clear,Dark,Dry,Fatal,Pedestrian Collisions,Pedestrian,28,Non-Fatal
920502,2006,2006/08/25 04:00:00+00,2330,LESLIE ST,COLDWATER RD,Major Arterial,North York,1516,43.755245,-79.36049,Mid-Block,Intersection Related,No Control,Rain,Dark,Wet,Fatal,Turning Movement,Driver,77,Fatal
920690,2006,2006/08/27 04:00:00+00,1928,F G GARDINER XY  W,BATHURST ST,Major Arterial,Toronto and East York,10,43.637945,-79.40389,Mid-Block,Intersection Related,No Control,Clear,Daylight,Dry,Fatal,SMV Other,Motorcycle Driver,72,Fatal
922948,2006,2006/09/09 04:00:00+00,308,MORNINGSIDE AVE,SHEPPARD AVE E,Major Arterial,Scarborough,25,43.801945,-79.19979,Intersection,Intersection Related,Traffic Signal,Clear,Dark,Wet,Fatal,Angle,Passenger,72,Fatal
923394,2006,2006/09/11 04:00:00+00,1629,EGLINTON AVE E,LESLIE ST,Major Arterial,North York,15,43.715945,-79.35349,Mid-Block,At Intersection,No Control,Clear,Daylight,Dry,Fatal,Cyclist Collisions,Cyclist,72,Fatal
925837,2006,2006/09/22 04:00:00+00,2158,BRIMLEY RD,WETHERBY DR,Major Arterial,Scarborough,21,43.738745,-79.24919,Intersection,At Intersection,No Control,Rain,Dark,Wet,Fatal,SMV Other,Driver,72,Fatal
930890,2006,2006/10/18 04:00:00+00,2136,OLD FINCH AVE,REESOR RD,Collector,Scarborough,25,43.824745,-79.19059,Mid-Block,Intersection Related,No Control,Clear,Dark,Dry,Fatal,SMV Other,Motorcycle Driver,72,Fatal
933173,2006,2006/10/29 04:00:00+00,35,HIGHWAY 27  N,HUMBER COLLEGE BLVD,Major Arterial,Etobicoke York,1,43.730445,-79.60139,Intersection,At Intersection,Traffic Signal,Rain,Dark,Wet,Fatal,Pedestrian Collisions,Pedestrian,72,Non-Fatal
936341,2006,2006/11/04 05:00:00+00,1805,BIRCHMOUNT RD,IVY BUSH AVE,Major Arterial,Scarborough,22,43.810745,-79.31209,Intersection,At Intersection,Traffic Signal,Clear,Dark,Dry,Fatal,Turning Movement,Driver,53,Fatal
935742,2006,2006/11/11 05:00:00+00,638,F G GARDINER XY  W,GARDINER W LAKE SHORE W RAMP,Non-Fatal,Etobicoke York,3,43.629745,-79.47859,Mid-Block,Intersection Related,No Control,Clear,Dark,Wet,Fatal,Sideswipe,Driver,17,Fatal
939458,2006,2006/11/30 05:00:00+00,720,WILSON AVE,BATHURST ST,Major Arterial,North York,6,43.737345,-79.43409,Intersection,Intersection Related,No Control,Rain,Dark,Wet,Fatal,Pedestrian Collisions,Pedestrian,14,Fatal
940637,2006,2006/12/07 05:00:00+00,1545,BRIMLEY RD,HUNTINGWOOD DR,Major Arterial,Scarborough,23,43.795845,-79.27219,Mid-Block,Intersection Related,No Control,Clear,Daylight,Dry,Fatal,Pedestrian Collisions,Pedestrian,72,Fatal
940775,2006,2006/12/08 05:00:00+00,1719,JANE ST,BEXLEY CRES,Major Arterial,Etobicoke York,5,43.680545,-79.49759,Intersection,Intersection Related,No Control,Clear,Dark,Dry,Fatal,Pedestrian Collisions,Pedestrian,72,Fatal
943986,2006,2006/12/23 05:00:00+00,1809,O CONNOR DR,LEAFY WOODWAY,Major Arterial,North York,16,43.722245,-79.30359,Intersection,Intersection Related,No Control,Rain,Dark,Wet,Fatal,Pedestrian Collisions,Pedestrian,72,Fatal
944038,2006,2006/12/24 05:00:00+00,850,MARKHAM RD,PAINTED POST DR,Major Arterial,Scarborough,24,43.767545,-79.22839,Intersection,At Intersection,Traffic Signal,Clear,Daylight,Dry,Fatal,Angle,Driver,13,Fatal
945089,2007,2007/01/02 05:00:00+00,1750,VICTORIA PARK AVE,HARE GT,Major Arterial,North York,1722,43.795945,-79.33269,Intersection,At Intersection,No Control,Clear,Dark,Dry,Fatal,Pedestrian Collisions,Pedestrian,52,Fatal
951370,2007,2007/02/05 05:00:00+00,523,CALEDONIA RD,CASTLEFIELD AVE,Minor Arterial,North York,8,43.698445,-79.46349,Intersection,At Intersection,Traffic Signal,Clear,Dark,Dry,Fatal,Angle,Driver,37,Fatal
952529,2007,2007/02/11 05:00:00+00,202,KIPLING AVE,ADVANCE RD,Major Arterial,Etobicoke York,3,43.632645,-79.53159,Mid-Block,At Intersection,No Control,Clear,Dark,Dry,Fatal,Pedestrian Collisions,Pedestrian,72,Fatal
953178,2007,2007/02/14 05:00:00+00,700,MCNICOLL AVE,WARDEN AVE,Minor Arterial,Scarborough,22,43.806045,-79.32219,Mid-Block,Intersection Related,No Control,Snow,Dark,Packed Snow,Fatal,Pedestrian Collisions,Pedestrian,3,Fatal
954405,2007,2007/02/19 05:00:00+00,1358,SPADINA AVE,WILLISON SQ,Major Arterial,Toronto and East York,10,43.652345,-79.39779,Intersection,Intersection Related,No Control,Clear,Daylight,Wet,Fatal,Pedestrian Collisions,Pedestrian,26,Fatal
957092,2007,2007/03/06 05:00:00+00,145,F G GARDINER XY  W,PARKSIDE DR,Major Arterial,Toronto and East York,4,43.638945,-79.45759,Mid-Block,Intersection Related,No Control,Clear,Dark,Dry,Fatal,Rear End,Driver,75,Fatal
957566,2007,2007/03/07 05:00:00+00,1027,STEELES AVE W,GIHON SPRING DR,Major Arterial,Etobicoke York,1,43.759345,-79.59689,Intersection,Intersection Related,No Control,Clear,Daylight,Other,Fatal,Approaching,Driver,82,Fatal
957966,2007,2007/03/09 05:00:00+00,1724,O CONNOR DR,PAPE AVE,Major Arterial,Toronto and East York,14,43.693245,-79.35029,Intersection,At Intersection,Traffic Signal,Clear,Dusk,Dry,Fatal,Pedestrian Collisions,Pedestrian,42,Non-Fatal
961870,2007,2007/03/30 04:00:00+00,2120,YONGE ST,SCRIVENER SQ,Major Arterial,Toronto and East York,11,43.680445,-79.39099,Intersection,At Intersection,No Control,Clear,Dark,Dry,Fatal,Pedestrian Collisions,Pedestrian,72,Non-Fatal
962132,2007,2007/03/31 04:00:00+00,643,BIRCHMOUNT RD,MERRYFIELD DR,Major Arterial,Scarborough,21,43.751145,-79.28629,Mid-Block,Intersection Related,No Control,Clear,Dawn,Dry,Fatal,Approaching,Driver,72,Fatal
962372,2007,2007/04/02 04:00:00+00,2108,QUEEN ST W,LANSDOWNE AVE,Major Arterial,Toronto and East York,4,43.640645,-79.43649,Intersection,Intersection Related,No Control,Clear,Dark,Dry,Fatal,Pedestrian Collisions,Pedestrian,82,Fatal
963778,2007,2007/04/11 04:00:00+00,2034,STEELES AVE W,MARKBROOK LANE,Major Arterial,Etobicoke York,1,43.760345,-79.58349,Mid-Block,Intersection Related,No Control,Rain,Dark,Wet,Fatal,Approaching,Driver,72,Fatal
964835,2007,2007/04/17 04:00:00+00,1603,149 SHELDON AVE,Non-Fatal,Local,Etobicoke York,3,43.602645,-79.54319,Mid-Block,Intersection Related,No Control,Clear,Daylight,Dry,Fatal,SMV Other,Driver,72,Fatal
965369,2007,2007/04/22 04:00:00+00,4,WARDEN AVE,SHEPPARD AVE E,Major Arterial,Scarborough,22,43.778746,-79.307887,Intersection,At Intersection,Traffic Signal,Clear,Dark,Dry,Fatal,Turning Movement,Motorcycle Driver,35,Non-Fatal
970644,2007,2007/05/20 04:00:00+00,440,STEELES AVE E,MIDLAND AVE,Major Arterial,Scarborough,2223,43.825945,-79.29729,Intersection,At Intersection,Traffic Signal,Clear,Dark,Dry,Fatal,Pedestrian Collisions,Pedestrian,19,Non-Fatal
972841,2007,2007/06/01 04:00:00+00,1910,ELLESMERE RD,BRIMLEY RD,Major Arterial,Scarborough,21,43.770045,-79.26129,Intersection,At Intersection,Traffic Signal,Clear,Daylight,Dry,Fatal,Turning Movement,Motorcycle Driver,48,Non-Fatal
972843,2007,2007/06/02 04:00:00+00,2,BLOOR ST E,DRUMSNAB RD,Major Arterial,Toronto and East York,11,43.674243,-79.367488,Intersection,At Intersection,No Control,Clear,Dark,Dry,Fatal,SMV Other,Motorcycle Driver,42,Fatal
972932,2007,2007/06/02 04:00:00+00,226,ISLINGTON AVE,FINCH AVE W,Major Arterial,Etobicoke York,17,43.746245,-79.56859,Intersection,At Intersection,Traffic Signal,Clear,Dark,Dry,Fatal,Angle,Driver,27,Fatal
972932,2007,2007/06/02 04:00:00+00,226,ISLINGTON AVE,FINCH AVE W,Major Arterial,Etobicoke York,17,43.746245,-79.56859,Intersection,At Intersection,Traffic Signal,Clear,Dark,Dry,Fatal,Angle,Passenger,18,Fatal
972932,2007,2007/06/02 04:00:00+00,226,ISLINGTON AVE,FINCH AVE W,Major Arterial,Etobicoke York,17,43.746245,-79.56859,Intersection,At Intersection,Traffic Signal,Clear,Dark,Dry,Fatal,Angle,Passenger,18,Fatal
974080,2007,2007/06/08 04:00:00+00,809,BAYVIEW AVE,FIFESHIRE RD,Major Arterial,North York,15,43.760445,-79.38659,Intersection,At Intersection,No Control,Clear,Daylight,Dry,Fatal,Cyclist Collisions,Cyclist,48,Fatal
975035,2007,2007/06/14 04:00:00+00,1124,COLLEGE ST,GRACE ST,Major Arterial,Toronto and East York,11,43.654945,-79.41559,Intersection,At Intersection,Traffic Signal,Clear,Daylight,Dry,Fatal,Pedestrian Collisions,Pedestrian,72,Non-Fatal
977223,2007,2007/06/30 04:00:00+00,212,BURRARD RD,CAULFIELD RD,Local,Etobicoke York,1,43.716345,-79.55349,Intersection,At Intersection,No Control,Clear,Dark,Dry,Fatal,SMV Other,Driver,7,Fatal
978249,2007,2007/07/01 04:00:00+00,805,ELLESMERE RD,KENNEDY RD,Major Arterial,Scarborough,21,43.765745,-79.28109,Intersection,At Intersection,Traffic Signal,Clear,Daylight,Dry,Fatal,Angle,Driver,32,Fatal
978116,2007,2007/07/05 04:00:00+00,530,BRAYMORE BLVD,BLACKTOFT DR,Collector,Scarborough,25,43.803145,-79.17689,Intersection,Intersection Related,No Control,Fog,Dark,Slush,Non-Fatal,Turning Movement,Passenger,58,Non-Fatal
979400,2007,2007/07/11 04:00:00+00,2013,MCCOWAN RD,BRIDLEGROVE DR,Minor Arterial,Scarborough,20,43.735245,-79.23669,Mid-Block,Intersection Related,No Control,Clear,Daylight,Dry,Fatal,Pedestrian Collisions,Pedestrian,22,Fatal
982207,2007,2007/07/18 04:00:00+00,1607,LAWRENCE AVE E,WARDEN AVE,Major Arterial,Scarborough,21,43.745345,-79.29469,Intersection,At Intersection,Traffic Signal,Clear,Daylight,Dry,Fatal,Pedestrian Collisions,Pedestrian,72,Non-Fatal
986718,2007,2007/08/05 04:00:00+00,1055,LAWRENCE AVE E,MCCOWAN RD,Major Arterial,Scarborough,21,43.755345,-79.24609,Mid-Block,Intersection Related,No Control,Clear,Daylight,Dry,Fatal,Pedestrian Collisions,Pedestrian,32,Fatal
984625,2007,2007/08/13 04:00:00+00,51,F G GARDINER XY  E,JAMESON AVE,Major Arterial,Toronto and East York,4,43.634545,-79.43879,Mid-Block,Intersection Related,No Control,Clear,Dark,Dry,Fatal,Rear End,Passenger,85,Fatal
984625,2007,2007/08/13 04:00:00+00,51,F G GARDINER XY  E,JAMESON AVE,Major Arterial,Toronto and East York,4,43.634545,-79.43879,Mid-Block,Intersection Related,No Control,Clear,Dark,Dry,Fatal,Rear End,Passenger,82,Fatal
987119,2007,2007/08/28 04:00:00+00,1244,BAY MILLS BLVD,EAGLESTONE RD,Collector,Scarborough,22,43.782145,-79.30349,Intersection,At Intersection,Pedestrian Crossover,Clear,Daylight,Dry,Fatal,Cyclist Collisions,Cyclist,72,Non-Fatal
987376,2007,2007/08/30 04:00:00+00,2252,F G GARDINER XY  W,JAMESON AVE,Major Arterial,Toronto and East York,4,43.632745,-79.43379,Mid-Block,Intersection Related,No Control,Clear,Dark,Dry,Fatal,SMV Other,Motorcycle Driver,77,Fatal
987500,2007,2007/09/02 04:00:00+00,48,SHEPPARD AVE W,SENTINEL RD,Major Arterial,North York,6,43.743645,-79.49179,Intersection,Intersection Related,Traffic Signal,Clear,Dark,Dry,Fatal,SMV Other,Driver,72,Fatal
987504,2007,2007/09/02 04:00:00+00,245,1 MURRAY GLEN DR,Non-Fatal,Local,Scarborough,21,43.751145,-79.30649,Mid-Block,Intersection Related,No Control,Clear,Dark,Dry,Fatal,Cyclist Collisions,Cyclist,52,Fatal
990014,2007,2007/09/13 04:00:00+00,1005,OAKDALE RD,FINCH AVE W,Major Arterial,Etobicoke York,7,43.755945,-79.52429,Intersection,At Intersection,Traffic Signal,Clear,Daylight,Dry,Fatal,Pedestrian Collisions,Pedestrian,42,Non-Fatal
990803,2007,2007/09/18 04:00:00+00,18,VICTORIA PARK AVE,HOLLAND AVE,Major Arterial,Toronto and East York,1920,43.715945,-79.29899,Intersection,At Intersection,No Control,Clear,Dark,Dry,Fatal,Approaching,Driver,37,Fatal
991727,2007,2007/09/20 04:00:00+00,2005,AVENUE RD,CASTLEFIELD AVE,Major Arterial,North York,8,43.709445,-79.41079,Intersection,At Intersection,Stop Sign,Clear,Dark,Dry,Fatal,Angle,Driver,63,Fatal
991482,2007,2007/09/20 04:00:00+00,2155,SPADINA RD,BERNARD AVE,Minor Arterial,Toronto and East York,11,43.672145,-79.40599,Intersection,At Intersection,Traffic Signal,Clear,Dark,Dry,Fatal,Turning Movement,Passenger,7,Non-Fatal
993818,2007,2007/09/28 04:00:00+00,1932,HIGHWAY 27  N,HUMBER COLLEGE BLVD,Major Arterial,Etobicoke York,1,43.731545,-79.60189,Mid-Block,Intersection Related,No Control,Clear,Dark,Dry,Fatal,Pedestrian Collisions,Pedestrian,72,Fatal
993820,2007,2007/10/01 04:00:00+00,605,YONGE ST,GLENFOREST RD,Major Arterial,North York,815,43.730245,-79.40359,Intersection,At Intersection,No Control,Clear,Dark,Dry,Fatal,Pedestrian Collisions,Pedestrian,72,Fatal
995785,2007,2007/10/10 04:00:00+00,1503,LA ROSE AVE,WATLING ST,Local,Etobicoke York,2,43.683045,-79.53259,Intersection,Intersection Related,No Control,Clear,Daylight,Wet,Fatal,SMV Other,Driver,72,Fatal
996032,2007,2007/10/10 04:00:00+00,1946,FINCH AVE E,BRIDLETOWNE CRCL,Major Arterial,Scarborough,22,43.796045,-79.31849,Mid-Block,Intersection Related,No Control,Rain,Dark,Wet,Fatal,Pedestrian Collisions,Pedestrian,28,Fatal
997564,2007,2007/10/19 04:00:00+00,1010,BERGAMOT AVE,ISLINGTON AVE,Collector,Etobicoke York,1,43.716245,-79.55869,Mid-Block,Intersection Related,No Control,Rain,Daylight,Wet,Fatal,Approaching,Passenger,77,Fatal
997564,2007,2007/10/19 04:00:00+00,1010,BERGAMOT AVE,ISLINGTON AVE,Collector,Etobicoke York,1,43.716245,-79.55869,Mid-Block,Intersection Related,No Control,Rain,Daylight,Wet,Fatal,Approaching,Passenger,72,Fatal
1000871,2007,2007/11/06 05:00:00+00,710,WARDEN AVE,MANHATTAN DR,Major Arterial,Scarborough,21,43.752045,-79.29749,Intersection,At Intersection,Traffic Signal,Clear,Daylight,Dry,Fatal,Pedestrian Collisions,Pedestrian,72,Non-Fatal
1001761,2007,2007/11/09 05:00:00+00,1810,JANE ST,FIRGROVE CRES,Major Arterial,Etobicoke York,7,43.754845,-79.51709,Intersection,At Intersection,Traffic Signal,Rain,Dark,Wet,Fatal,Pedestrian Collisions,Pedestrian,72,Non-Fatal
1004342,2007,2007/11/23 05:00:00+00,950,DON MILLS RD,OVERLEA BLVD,Major Arterial,North York,16,43.710945,-79.33479,Mid-Block,Intersection Related,No Control,Clear,Daylight,Wet,Fatal,Pedestrian Collisions,Pedestrian,72,Fatal
142723818,2014,2014/08/18 04:00:00+00,125,QUEEN ST E,TRACY ST,Major Arterial,Toronto and East York,13,43.656085,-79.362254,Intersection,Intersection Related,No Control,Clear,Dark,Slush,Non-Fatal,Turning Movement,Passenger,72,Non-Fatal
142740894,2014,2014/08/20 04:00:00+00,1639,VICTORIA PARK AVE,O CONNOR DR,Major Arterial,North York,1620,43.723372,-79.302089,Intersection,At Intersection,Traffic Signal,Clear,Daylight,Dry,Fatal,Pedestrian Collisions,Pedestrian,72,Non-Fatal
4002804562,2014,2014/08/30 04:00:00+00,459,ST CLAIR AVE W,SYMES RD,Major Arterial,Etobicoke York,5,43.670558,-79.476505,Mid-Block,Non Intersection,No Control,Clear,Dark,Slush,Non-Fatal,Turning Movement,Passenger,53,Non-Fatal
4002817424,2014,2014/09/01 04:00:00+00,147,EGLINTON AVE E,MARKHAM RD,Major Arterial,Scarborough,2024,43.742972,-79.219852,Mid-Block,Non Intersection,No Control,Clear,Dark,Slush,Non-Fatal,Turning Movement,Passenger,17,Non-Fatal
142879736,2014,2014/09/10 04:00:00+00,620,OKEEFE LANE,DUNDAS SQ,Laneway,Toronto and East York,13,43.655387,-79.379863,Mid-Block,Intersection Related,No Control,Clear,Dark,Slush,Non-Fatal,Turning Movement,Passenger,14,Non-Fatal
142937129,2014,2014/09/18 04:00:00+00,2001,ST CLAIR AVE W,DEER PARK CRES,Major Arterial,Toronto and East York,12,43.687525,-79.396793,Mid-Block,Intersection Related,No Control,Clear,Dark,Slush,Non-Fatal,Turning Movement,Passenger,72,Non-Fatal
142962876,2014,2014/09/22 04:00:00+00,2059,KING ST W,CLOSE AVE,Major Arterial,Toronto and East York,4,43.63745,-79.434711,Intersection,Intersection Related,Pedestrian Crossover,Clear,Dark,Slush,Non-Fatal,Turning Movement,Passenger,72,Non-Fatal
143015764,2014,2014/09/30 04:00:00+00,1608,ST CLAIR AVE W,KEELE ST,Major Arterial,Etobicoke York,5,43.672331,-79.468509,Mid-Block,Intersection Related,No Control,Clear,Daylight,Dry,Fatal,Pedestrian Collisions,Pedestrian,72,Fatal
143022510,2014,2014/10/01 04:00:00+00,1620,35 IRWIN RD,Non-Fatal,Local,Etobicoke York,1,43.725997,-79.55511,Mid-Block,Intersection Related,No Control,Clear,Daylight,Wet,Fatal,SMV Other,Motorcycle Driver,13,Fatal
4003073382,2014,2014/10/09 04:00:00+00,1410,WARDEN AVE,MARBLE ARCH CRES,Major Arterial,Scarborough,21,43.735335,-79.290637,Intersection,Non Intersection,Traffic Signal,Clear,Daylight,Dry,Fatal,Cyclist Collisions,Cyclist,52,Non-Fatal
4003074555,2014,2014/10/09 04:00:00+00,1745,KING ST W,JAMESON AVE,Major Arterial,Toronto and East York,4,43.637053,-79.436572,Mid-Block,Intersection Related,No Control,Clear,Dusk,Dry,Fatal,Pedestrian Collisions,Passenger,37,Non-Fatal
143084786,2014,2014/10/11 04:00:00+00,1024,LAWRENCE AVE W,ALLEN X N LAWRENCE RAMP,Major Arterial,North York,8,43.716307,-79.443202,Intersection,At Intersection,Traffic Signal,Clear,Daylight,Dry,Fatal,Pedestrian Collisions,Passenger,72,Non-Fatal
143117140,2014,2014/10/16 04:00:00+00,1927,VICTORIA PARK AVE,EGLINTON AVE E,Major Arterial,North York,1621,43.725833,-79.303104,Mid-Block,Intersection Related,No Control,Rain,Dark,Slush,Non-Fatal,Turning Movement,Passenger,3,Non-Fatal
4003192512,2014,2014/10/28 04:00:00+00,1515,VICTORIA PARK AVE,O CONNOR DR,Major Arterial,North York,1620,43.723372,-79.302089,Intersection,Intersection Related,Traffic Signal,Other,Daylight,Dry,Fatal,Cyclist Collisions,Cyclist,26,Non-Fatal
143234908,2014,2014/11/04 05:00:00+00,807,ORTON PARK RD,SLAN AVE,Minor Arterial,Scarborough,24,43.777968,-79.211902,Mid-Block,Intersection Related,No Control,Clear,Daylight,Dry,Fatal,SMV Other,Driver,75,Fatal
143250160,2014,2014/11/06 05:00:00+00,1254,MIDLAND AVE,GILDER DR,Major Arterial,Scarborough,21,43.736033,-79.258769,Intersection,At Intersection,Traffic Signal,Clear,Daylight,Dry,Fatal,Pedestrian Collisions,Pedestrian,82,Non-Fatal
4003257164,2014,2014/11/07 05:00:00+00,1247,DON MILLS RD,FRESHMEADOW DR,Major Arterial,North York,17,43.809378,-79.359485,Mid-Block,Non Intersection,No Control,Clear,Daylight,Dry,Fatal,Pedestrian Collisions,Pedestrian,42,Non-Fatal
4003267619,2014,2014/11/09 05:00:00+00,559,KIPLING AVE,WESTHUMBER BLVD,Major Arterial,Etobicoke York,1,43.728129,-79.574641,Intersection,At Intersection,Traffic Signal,Clear,Dark,Slush,Non-Fatal,Turning Movement,Passenger,72,Non-Fatal
143335677,2014,2014/11/20 05:00:00+00,1245,2440 DUNDAS ST W,DUNDAS ST E,Minor Arterial,Toronto and East York,4,43.658259,-79.452983,Intersection,At Intersection,Traffic Signal,Clear,Daylight,Dry,Fatal,Pedestrian Collisions,Pedestrian,72,Non-Fatal
143339762,2014,2014/11/21 05:00:00+00,600,FINCH AVE W,DRIFTWOOD AVE,Major Arterial,Etobicoke York,7,43.758048,-79.513431,Intersection,At Intersection,Traffic Signal,Clear,Dawn,Slush,Non-Fatal,Turning Movement,Passenger,82,Non-Fatal
143357519,2014,2014/11/24 05:00:00+00,350,DON VALLEY PARKWAY  N,LEASIDE BDGE,Major Arterial,Toronto and East York,14,43.697508,-79.349437,Mid-Block,Intersection Related,No Control,Rain,Dark,Slush,Non-Fatal,Turning Movement,Passenger,72,Non-Fatal
143362651,2014,2014/11/24 05:00:00+00,1800,ELLESMERE RD,MILITARY TRL,Major Arterial,Scarborough,24,43.779742,-79.217136,Intersection,At Intersection,Traffic Signal,Clear,Dark,Slush,Non-Fatal,Turning Movement,Passenger,72,Non-Fatal
143380193,2014,2014/11/27 05:00:00+00,1420,549 COLLEGE ST,DUNDAS ST E,Major Arterial,Toronto and East York,11,43.655574,-79.412013,Mid-Block,Intersection Related,No Control,Clear,Daylight,Dry,Fatal,SMV Other,Passenger,35,Fatal
143440580,2014,2014/12/07 05:00:00+00,944,KENNEDY RD,RANSTONE GDNS,Major Arterial,Scarborough,21,43.742171,-79.272052,Intersection,Intersection Related,Traffic Signal,Clear,Daylight,Dry,Fatal,Approaching,Driver,19,Fatal
143471771,2014,2014/12/12 05:00:00+00,1320,SHEPPARD AVE E,404 N SHEPPARD W RAMP,Major Arterial,North York,17,43.77582,-79.337749,Intersection,Intersection Related,Traffic Signal,Clear,Daylight,Wet,Fatal,Turning Movement,Passenger,48,Fatal
143474139,2014,2014/12/12 05:00:00+00,1840,COXWELL AVE,COSBURN AVE,Minor Arterial,Toronto and East York,1419,43.694125,-79.328006,Intersection,At Intersection,Traffic Signal,Clear,Dusk,Slush,Non-Fatal,Turning Movement,Passenger,42,Non-Fatal
143507481,2014,2014/12/18 05:00:00+00,843,6030 BATHURST ST,Non-Fatal,Major Arterial,North York,618,43.788577,-79.446666,Mid-Block,Intersection Related,No Control,Clear,Daylight,Dry,Fatal,Pedestrian Collisions,Pedestrian,27,Fatal
4003516677,2014,2014/12/19 05:00:00+00,1740,FINCH AVE E,NEILSON RD,Minor Arterial,Scarborough,2325,43.816252,-79.227596,Intersection,At Intersection,Traffic Signal,Clear,Dark,Dry,Fatal,Pedestrian Collisions,Pedestrian,10,Non-Fatal
4003563376,2014,2014/12/28 05:00:00+00,1809,SHEPPARD AVE E,BRIDLEWOOD BLVD,Major Arterial,Scarborough,22,43.777014,-79.315486,Intersection,Non Intersection,No Control,Clear,Dark,Slush,Non-Fatal,Turning Movement,Passenger,72,Non-Fatal
100,2015,2015/01/11 05:00:00+00,353,477 BROADVIEW AVE,DUNDAS ST E,Minor Arterial,Toronto and East York,14,43.669097,-79.352985,Mid-Block,Intersection Related,No Control,Clear,Dark,Slush,Non-Fatal,Turning Movement,Passenger,72,Non-Fatal
150,2015,2015/01/25 05:00:00+00,756,COLLEGE ST,BROCK AVE,Minor Arterial,Toronto and East York,9,43.651801,-79.436343,Intersection,At Intersection,Traffic Signal,Clear,Daylight,Dry,Fatal,Pedestrian Collisions,Pedestrian,72,Non-Fatal
Non-Fatal,2015,2015/01/28 05:00:00+00,617,1792 BIRCHMOUNT RD,Non-Fatal,Major Arterial,Scarborough,21,43.765433,-79.291316,Mid-Block,Intersection Related,No Control,Clear,Dark,Dry,Fatal,Pedestrian Collisions,Pedestrian,50,Fatal
Non-Fatal,2015,2015/02/05 05:00:00+00,1701,750 DANFORTH RD,Non-Fatal,Major Arterial,Scarborough,20,43.720404,-79.257442,Mid-Block,Intersection Related,No Control,Clear,Daylight,Slush,Non-Fatal,Turning Movement,Passenger,53,Non-Fatal
Non-Fatal,2015,2015/02/13 05:00:00+00,1516,ROYAL YORK RD,MANITOBA ST,Minor Arterial,Etobicoke York,3,43.621562,-79.500606,Intersection,Intersection Related,No Control,Other,Daylight,Other,Fatal,Other,Passenger,75,Fatal
Non-Fatal,2015,2015/02/16 05:00:00+00,644,KENNEDY RD,MCNICOLL AVE,Major Arterial,Scarborough,22,43.812129,-79.301936,Intersection,At Intersection,Traffic Signal,Clear,Dawn,Dry,Fatal,Pedestrian Collisions,Pedestrian,17,Fatal
200,2017,2017/08/25 04:00:00+00,1130,DUNDAS ST W,GLADSTONE AVE,Minor Arterial,Toronto and East York,9,43.649501,-79.428958,Mid-Block,Non Intersection,No Control,Clear,Dark,Dry,Fatal,Pedestrian Collisions,Pedestrian,52,Non-Fatal
250,2015,2015/02/18 05:00:00+00,104,SHERBOURNE ST,DUNDAS ST E,Minor Arterial,Toronto and East York,13,43.65774,-79.370799,Mid-Block,Intersection Related,No Control,Clear,Dark,Slush,Non-Fatal,Turning Movement,Passenger,37,Non-Fatal
Non-Fatal,2015,2015/03/04 05:00:00+00,1639,FINCH AVE E,MARKHAM RD,Major Arterial,Scarborough,23,43.81296,-79.243068,Intersection,At Intersection,Traffic Signal,Clear,Daylight,Dry,Fatal,Pedestrian Collisions,Pedestrian,77,Fatal
Non-Fatal,2015,2015/03/04 05:00:00+00,1935,MILLWICK DR,PLUNKETT RD,Minor Arterial,Etobicoke York,7,43.760417,-79.570071,Intersection,Intersection Related,Traffic Signal,Clear,Dark,Slush,Non-Fatal,Turning Movement,Passenger,45,Non-Fatal
300,2015,2015/03/10 04:00:00+00,645,452 MORTIMER AVE,DUNDAS ST E,Minor Arterial,Toronto and East York,14,43.689231,-79.332736,Intersection,Intersection Related,No Control,Clear,Dawn,Slush,Non-Fatal,Turning Movement,Passenger,18,Non-Fatal
Non-Fatal,2015,2015/03/19 04:00:00+00,1645,6212 YONGE ST,Non-Fatal,Major Arterial,North York,18,43.794638,-79.4192,Mid-Block,At/Near Private Drive,No Control,Clear,Daylight,Dry,Fatal,Pedestrian Collisions,Pedestrian,72,Fatal
10,2015,2015/03/20 04:00:00+00,58,262 TORRENS AVE,DUNDAS ST E,Local,Toronto and East York,14,43.692526,-79.343501,Mid-Block,Intersection Related,No Control,Clear,Dark,Dry,Fatal,Pedestrian Collisions,Pedestrian,82,Fatal
20,2015,2015/03/20 04:00:00+00,2010,ST CLAIR AVE W,ARLINGTON AVE,Major Arterial,Toronto and East York,12,43.681033,-79.428859,Intersection,At Intersection,Traffic Signal,Clear,Dark,Slush,Non-Fatal,Turning Movement,Passenger,32,Non-Fatal
Non-Fatal,2015,2015/03/27 04:00:00+00,2053,EGLINTON AVE E,VICTORIA PARK AVE,Major Arterial,North York,162120,43.724711,-79.302638,Intersection,Non Intersection,No Control,Clear,Dark,Slush,Non-Fatal,Turning Movement,Passenger,18,Non-Fatal
Non-Fatal,2015,2015/03/28 04:00:00+00,1240,REINER RD,WILSON HEIGHTS BLVD,Minor Arterial,North York,6,43.74869,-79.454883,Intersection,At Intersection,Traffic Signal,Clear,Daylight,Dry,Fatal,Pedestrian Collisions,Pedestrian,7,Non-Fatal
30,2015,2015/04/01 04:00:00+00,2308,F G GARDINER XY  W,STRACHAN AVE,Major Arterial,Toronto and East York,10,43.637427,-79.41212,Mid-Block,Intersection Related,No Control,Clear,Dark,Slush,Non-Fatal,Turning Movement,Passenger,72,Non-Fatal
40,2015,2015/04/04 04:00:00+00,2010,BROADVIEW AVE,GERRARD ST E,Minor Arterial,Toronto and East York,14,43.66582,-79.352763,Mid-Block,Non Intersection,No Control,Rain,Dark,Slush,Non-Fatal,Turning Movement,Passenger,72,Non-Fatal
Non-Fatal,2015,2015/04/13 04:00:00+00,1734,WILSON AVE,WILLIAM CRAGG DR,Major Arterial,North York,6,43.722663,-79.499889,Mid-Block,Intersection Related,No Control,Clear,Daylight,Dry,Fatal,Rear End,Driver,42,Fatal
50,2015,2015/04/20 04:00:00+00,1405,1159 DUNDAS ST E,DUNDAS ST E,Minor Arterial,Toronto and East York,14,43.664443,-79.34238,Mid-Block,Non Intersection,No Control,Clear,Daylight,Dry,Fatal,Pedestrian Collisions,Pedestrian,20,Non-Fatal
5,2015,2015/05/07 04:00:00+00,100,ROSEDALE VALLEY RD,BAYVIEW AVE,Minor Arterial,Toronto and East York,1113,43.671626,-79.36584,Mid-Block,Non Intersection,No Control,Clear,Dark,Slush,Non-Fatal,Turning Movement,Passenger,42,Non-Fatal
Non-Fatal,2015,2015/05/13 04:00:00+00,2208,DANFORTH RD,BRIMLEY RD,Major Arterial,Scarborough,20,43.735163,-79.247379,Intersection,At Intersection,Traffic Signal,Clear,Dark,Dry,Fatal,Pedestrian Collisions,Pedestrian,32,Fatal
10,2015,2015/05/16 04:00:00+00,325,BLOOR ST W,INDIAN GRV,Major Arterial,Toronto and East York,4,43.655169,-79.457828,Mid-Block,Non Intersection,No Control,Clear,Dark,Slush,Non-Fatal,Turning Movement,Passenger,48,Non-Fatal
15,2015,2015/05/19 04:00:00+00,823,ROXBOROUGH ST E,WRENTHAM PL,Collector,Toronto and East York,11,43.679423,-79.382312,Intersection,Intersection Related,Stop Sign,Clear,Daylight,Slush,Non-Fatal,Turning Movement,Passenger,18,Non-Fatal
Non-Fatal,2015,2015/05/22 04:00:00+00,822,DON MILLS RD,GREEN BELT DR,Major Arterial,North York,16,43.727645,-79.340846,Intersection,Intersection Related,Traffic Signal,Clear,Daylight,Dry,Fatal,Pedestrian Collisions,Pedestrian,42,Non-Fatal
Non-Fatal,2015,2015/05/27 04:00:00+00,2120,TANGAMO RD,MOFORD CRES,Local,Etobicoke York,2,43.69047,-79.559459,Intersection,Non Intersection,Stop Sign,Clear,Dark,Slush,Non-Fatal,Turning Movement,Passenger,7,Non-Fatal
20,2015,2015/05/31 04:00:00+00,2104,BLOOR ST W,WESTMORELAND AVE,Major Arterial,Toronto and East York,9,43.660933,-79.430408,Intersection,Intersection Related,No Control,Rain,Dusk,Wet,Fatal,Pedestrian Collisions,Pedestrian,32,Fatal
Non-Fatal,2015,2015/06/02 04:00:00+00,1233,LAWRENCE AVE E,MCCOWAN RD,Major Arterial,Scarborough,2124,43.755538,-79.245418,Intersection,At Intersection,Traffic Signal,Clear,Daylight,Dry,Fatal,Pedestrian Collisions,Pedestrian,58,Non-Fatal
Non-Fatal,2015,2015/06/11 04:00:00+00,24,FINCH AVE W,TOBERMORY DR,Major Arterial,Etobicoke York,7,43.759272,-79.507922,Intersection,At Intersection,Traffic Signal,Clear,Dark,Slush,Non-Fatal,Turning Movement,Passenger,22,Non-Fatal
Non-Fatal,2015,2015/06/11 04:00:00+00,1322,YONGE ST,EMPRESS AVE,Major Arterial,North York,18,43.769263,-79.412891,Intersection,At Intersection,Traffic Signal,Clear,Daylight,Dry,Fatal,Pedestrian Collisions,Pedestrian,72,Fatal
Non-Fatal,2015,2015/06/13 04:00:00+00,300,F G GARDINER XY  W,ROYAL YORK RD,Non-Fatal,Etobicoke York,3,43.622645,-79.502467,Mid-Block,Intersection Related,No Control,Rain,Dark,Wet,Fatal,SMV Other,Driver,32,Fatal
2,2015,2015/06/13 04:00:00+00,2320,AVENUE RD,DAVENPORT RD,Major Arterial,Toronto and East York,11,43.674712,-79.396594,Intersection,At Intersection,Traffic Signal,Clear,Dark,Slush,Non-Fatal,Turning Movement,Passenger,85,Non-Fatal
4,2015,2015/06/26 04:00:00+00,2150,2058 DUFFERIN ST,DUNDAS ST E,Major Arterial,Toronto and East York,912,43.686812,-79.446643,Mid-Block,Intersection Related,No Control,Clear,Dark,Slush,Non-Fatal,Turning Movement,Passenger,82,Non-Fatal
Non-Fatal,2015,2015/07/06 04:00:00+00,8,KIPLING AVE,JUTLAND RD,Major Arterial,Etobicoke York,3,43.626292,-79.528835,Intersection,Intersection Related,No Control,Clear,Dark,Slush,Non-Fatal,Turning Movement,Passenger,72,Non-Fatal
Non-Fatal,2015,2015/07/14 04:00:00+00,2137,BUCKINGHAM AVE,DINNICK CRES,Local,North York,15,43.725703,-79.39442,Intersection,Intersection Related,Stop Sign,Other,Dark,Slush,Non-Fatal,Turning Movement,Passenger,77,Non-Fatal
Non-Fatal,2015,2015/07/26 04:00:00+00,1328,6486 KINGSTON RD,Non-Fatal,Minor Arterial,Scarborough,25,43.792666,-79.155994,Mid-Block,Non Intersection,No Control,Clear,Daylight,Dry,Fatal,Turning Movement,Motorcycle Driver,72,Non-Fatal
Non-Fatal,2015,2015/08/04 04:00:00+00,1136,KEELE STREET,MAPLE LEAF DRIVE,Major Arterial,Etobicoke York,5,43.715346,-79.479564,Mid-Block,Non Intersection,No Control,Clear,Daylight,Dry,Fatal,Sideswipe,Driver,52,Fatal
Non-Fatal,2015,2015/08/09 04:00:00+00,2110,MEADOWVALE RD,SHEPPARD AVE E,Collector,Scarborough,25,43.808852,-79.171031,Mid-Block,Intersection Related,No Control,Clear,Dark,Slush,Non-Fatal,Turning Movement,Passenger,42,Non-Fatal
Non-Fatal,2015,2015/08/16 04:00:00+00,42,BELLAMY RD N,LAWRENCE AVE E,Major Arterial,Scarborough,2124,43.757712,-79.235263,Intersection,Intersection Related,Traffic Signal,Clear,Dark,Slush,Non-Fatal,Turning Movement,Passenger,37,Non-Fatal
Non-Fatal,2015,2015/08/16 04:00:00+00,1210,2350 BAYVIEW AVE,Non-Fatal,Major Arterial,North York,15,43.732985,-79.38129,Intersection,Intersection Related,Traffic Signal,Clear,Daylight,Dry,Fatal,Turning Movement,Driver,63,Fatal
Non-Fatal,2015,2015/08/24 04:00:00+00,1325,STEELES AVE W,TORRESDALE AVE,Major Arterial,North York,6,43.790801,-79.453021,Intersection,At Intersection,Traffic Signal,Clear,Daylight,Dry,Fatal,Pedestrian Collisions,Pedestrian,50,Non-Fatal
Non-Fatal,2015,2015/09/03 04:00:00+00,736,PARK LAWN RD,LAKE SHORE BLVD W,Major Arterial,Etobicoke York,3,43.623171,-79.481792,Mid-Block,Intersection Related,No Control,Clear,Daylight,Dry,Fatal,Pedestrian Collisions,Pedestrian,53,Fatal
Non-Fatal,2015,2015/09/05 04:00:00+00,1652,MAXWELL ST,HOVE ST,Local,North York,6,43.76113,-79.448695,Intersection,Non Intersection,No Control,Clear,Daylight,Dry,Fatal,SMV Other,Passenger,75,Fatal
6,2015,2015/09/06 04:00:00+00,1034,LAKE SHORE BLVD W,JAMESON AVE,Major Arterial,Toronto and East York,4,43.633349,-79.435138,Mid-Block,Non Intersection,No Control,Clear,Daylight,Dry,Fatal,SMV Other,Motorcycle Driver,17,Non-Fatal
8,2015,2015/09/18 04:00:00+00,610,QUEEN ST E,HILTZ AVE,Minor Arterial,Toronto and East York,14,43.664164,-79.326206,Intersection,Non Intersection,No Control,Clear,Dark,Dry,Fatal,Approaching,Motorcycle Driver,52,Non-Fatal
Non-Fatal,2015,2015/09/20 04:00:00+00,2000,MIDLAND AVE,ELLESMERE RD,Major Arterial,Scarborough,21,43.767913,-79.271098,Intersection,At Intersection,Traffic Signal,Clear,Dark,Slush,Non-Fatal,Turning Movement,Passenger,37,Non-Fatal
10,2015,2015/09/22 04:00:00+00,1751,QUEEN ST E,BERKELEY ST,Major Arterial,Toronto and East York,13,43.655329,-79.365749,Intersection,Intersection Related,No Control,Clear,Daylight,Dry,Fatal,Pedestrian Collisions,Passenger,77,Non-Fatal
12,2015,2015/09/24 04:00:00+00,636,THE QUEENSWAY,GLENDALE AVE,Major Arterial,Toronto and East York,4,43.639189,-79.450557,Mid-Block,At Intersection,No Control,Clear,Dark,Slush,Non-Fatal,Turning Movement,Passenger,45,Non-Fatal
Non-Fatal,2015,2015/09/26 04:00:00+00,1,BURNHAMTHORPE RD,427 C N BURNHAMTHORPE RAMP,Major Arterial,Etobicoke York,2,43.645896,-79.561664,Intersection,At Intersection,Traffic Signal,Clear,Dark,Slush,Non-Fatal,Turning Movement,Passenger,18,Non-Fatal
Non-Fatal,2015,2015/09/30 04:00:00+00,2355,WILSON AVE,MURRAY RD,Major Arterial,North York,6,43.72959,-79.471462,Intersection,At Intersection,No Control,Clear,Dark,Slush,Non-Fatal,Turning Movement,Passenger,72,Non-Fatal
Non-Fatal,2015,2015/10/03 04:00:00+00,351,BURNHAMTHORPE RD,PRENNAN AVE,Major Arterial,Etobicoke York,2,43.650695,-79.540759,Intersection,Non Intersection,No Control,Clear,Dark,Dry,Fatal,SMV Other,Passenger,82,Fatal
Non-Fatal,2015,2015/10/06 04:00:00+00,621,MORNINGSIDE AVE,SHEPPARD AVE E,Major Arterial,Scarborough,25,43.805159,-79.20087,Mid-Block,Non Intersection,No Control,Clear,Dawn,Slush,Non-Fatal,Turning Movement,Passenger,32,Non-Fatal
Non-Fatal,2015,2015/10/10 04:00:00+00,1919,ISLINGTON AVE,DEERFOOT RD,Major Arterial,Etobicoke York,2,43.685214,-79.541393,Intersection,Intersection Related,No Control,Clear,Dark,Dry,Fatal,Pedestrian Collisions,Pedestrian,18,Fatal
Non-Fatal,2015,2015/10/23 04:00:00+00,1437,KEELE ST,DONALD AVE,Major Arterial,Etobicoke York,5,43.684897,-79.472804,Intersection,Intersection Related,Traffic Signal,Clear,Daylight,Dry,Fatal,Pedestrian Collisions,Pedestrian,7,Non-Fatal
Non-Fatal,2015,2015/11/03 05:00:00+00,1755,HIGHWAY 27  N,VICE REGENT BLVD,Major Arterial,Etobicoke York,1,43.711352,-79.592754,Intersection,Intersection Related,No Control,Clear,Dark,Slush,Non-Fatal,Turning Movement,Passenger,72,Non-Fatal
Non-Fatal,2015,2015/11/11 05:00:00+00,2004,LAWRENCE AVE W,JANE ST,Major Arterial,Etobicoke York,5,43.702868,-79.503825,Intersection,Non Intersection,No Control,Clear,Dark,Slush,Non-Fatal,Turning Movement,Passenger,72,Non-Fatal
40,2015,2015/11/14 05:00:00+00,825,1996 BATHURST ST,DUNDAS ST E,Major Arterial,Toronto and East York,12,43.699485,-79.424945,Mid-Block,Non Intersection,No Control,Clear,Daylight,Dry,Fatal,Pedestrian Collisions,Pedestrian,42,Fatal
Non-Fatal,2015,2015/11/18 05:00:00+00,1710,MARKHAM RD,EGLINTON AVE E,Major Arterial,Scarborough,24,43.743716,-79.219142,Mid-Block,Non Intersection,No Control,Rain,Dark,Slush,Non-Fatal,Turning Movement,Passenger,20,Non-Fatal
Non-Fatal,2015,2015/11/24 05:00:00+00,603,MCCOWAN RD,KENHATCH BLVD,Major Arterial,Scarborough,23,43.801421,-79.263774,Intersection,At Intersection,Traffic Signal,Snow,Dark,Wet,Fatal,Pedestrian Collisions,Pedestrian,42,Fatal
Non-Fatal,2015,2015/11/26 05:00:00+00,934,EGLINTON AVE W,ELMSTHORPE AVE,Major Arterial,North York,812,43.704074,-79.410945,Intersection,At Intersection,No Control,Clear,Daylight,Dry,Fatal,Pedestrian Collisions,Pedestrian,32,Non-Fatal
Non-Fatal,2015,2015/11/27 05:00:00+00,532,EGLINTON AVE W,BATHURST ST,Major Arterial,North York,812,43.700984,-79.425548,Intersection,At Intersection,Traffic Signal,Clear,Dark,Dry,Fatal,Pedestrian Collisions,Pedestrian,48,Fatal
Non-Fatal,2015,2015/11/30 05:00:00+00,1715,BATHURST ST,MARMION AVE,Major Arterial,North York,8,43.726615,-79.431415,Intersection,Intersection Related,No Control,Clear,Dark,Slush,Non-Fatal,Turning Movement,Passenger,18,Non-Fatal
Non-Fatal,2015,2015/12/02 05:00:00+00,1419,LAWRENCE AVE W,BATHURST ST,Major Arterial,North York,8,43.719248,-79.429813,Intersection,Intersection Related,Traffic Signal,Clear,Daylight,Dry,Fatal,Pedestrian Collisions,Pedestrian,42,Non-Fatal
Non-Fatal,2015,2015/12/03 05:00:00+00,2038,KINGSTON RD,FatalIRCROFT BLVD,Major Arterial,Scarborough,20,43.729457,-79.22742,Mid-Block,Non Intersection,No Control,Clear,Dark,Slush,Non-Fatal,Turning Movement,Passenger,7,Non-Fatal
Non-Fatal,2015,2015/12/15 05:00:00+00,1100,JANE ST,SPEERS AVE,Major Arterial,Etobicoke York,5,43.701564,-79.503444,Intersection,At Intersection,No Control,Clear,Daylight,Dry,Fatal,Turning Movement,Passenger,32,Fatal
21,2015,2015/12/30 05:00:00+00,2339,DANFORTH AVE,GILLARD AVE,Major Arterial,Toronto and East York,14,43.682341,-79.328265,Intersection,At Intersection,No Control,Clear,Dark,Slush,Non-Fatal,Turning Movement,Passenger,58,Non-Fatal
Non-Fatal,2016,2016/01/03 05:00:00+00,1915,1400 KENNEDY RD,Non-Fatal,Major Arterial,Scarborough,21,43.764498,-79.280681,Mid-Block,Non Intersection,No Control,Clear,Dark,Slush,Non-Fatal,Turning Movement,Passenger,22,Non-Fatal
Non-Fatal,2016,2016/01/06 05:00:00+00,1429,BLACK CREEK DR,EGLINTON AVE W,Major Arterial,Etobicoke York,5,43.688357,-79.482868,Intersection,Intersection Related,Traffic Signal,Clear,Daylight,Dry,Fatal,Turning Movement,Passenger,72,Non-Fatal
Non-Fatal,2016,2016/01/08 05:00:00+00,520,BROWN S LINE,LAKE SHORE BLVD W,Major Arterial,Etobicoke York,3,43.593039,-79.54156,Mid-Block,Non Intersection,No Control,Clear,Dark,Slush,Non-Fatal,Turning Movement,Passenger,32,Non-Fatal
Non-Fatal,2016,2016/01/14 05:00:00+00,1129,STEELES AVE E,PHARMACY AVE,Major Arterial,Scarborough,22,43.816844,-79.336467,Intersection,At Intersection,Traffic Signal,Clear,Daylight,Wet,Fatal,Turning Movement,Driver,85,Fatal
Non-Fatal,2016,2016/01/15 05:00:00+00,1435,BAYVIEW AVE,EGLINTON AVE E,Major Arterial,North York,15,43.711028,-79.377147,Intersection,Intersection Related,Traffic Signal,Clear,Daylight,Wet,Fatal,Pedestrian Collisions,Passenger,82,Non-Fatal
Non-Fatal,2016,2016/01/17 05:00:00+00,1935,SHEPPARD AVE E,CHICHESTER PL,Major Arterial,Scarborough,22,43.775893,-79.320316,Intersection,At Intersection,No Control,Clear,Dark,Slush,Non-Fatal,Turning Movement,Passenger,72,Non-Fatal
Non-Fatal,2016,2016/01/28 05:00:00+00,925,DUNDAS ST W,POPLAR AVE,Major Arterial,Etobicoke York,3,43.636099,-79.540073,Intersection,At Intersection,Traffic Signal,Clear,Daylight,Dry,Fatal,Pedestrian Collisions,Pedestrian,77,Non-Fatal
31,2016,2016/01/30 05:00:00+00,1753,DUFFERIN ST,ARMSTRONG AVE,Major Arterial,Toronto and East York,9,43.664706,-79.437427,Intersection,Intersection Related,No Control,Clear,Dark,Slush,Non-Fatal,Turning Movement,Passenger,72,Non-Fatal
Non-Fatal,2016,2016/01/31 05:00:00+00,230,DERRYDOWN RD,ROMFIELD DR,Local,Etobicoke York,7,43.760321,-79.493961,Intersection,Intersection Related,Stop Sign,Clear,Dark,Slush,Non-Fatal,Turning Movement,Passenger,52,Non-Fatal
Non-Fatal,2016,2016/02/01 05:00:00+00,1033,BIRMINGHAM ST,TWENTY FIRST ST,Collector,Etobicoke York,3,43.599963,-79.521175,Intersection,Intersection Related,Pedestrian Crossover,Clear,Daylight,Dry,Fatal,Sideswipe,Driver,42,Fatal
Non-Fatal,2017,2017/08/26 04:00:00+00,1055,3738 ST CLAIR AVE E,Non-Fatal,Minor Arterial,Scarborough,20,43.720442,-79.243045,Mid-Block,Non Intersection,No Control,Clear,Daylight,Dry,Fatal,SMV Other,Driver,37,Fatal
Non-Fatal,2017,2017/08/27 04:00:00+00,2054,6065 STEELES AVE E,Non-Fatal,Major Arterial,Scarborough,23,43.83705,-79.249019,Mid-Block,Non Intersection,No Control,Clear,Dark,Dry,Fatal,Pedestrian Collisions,Pedestrian,63,Fatal
Non-Fatal,2017,2017/09/05 04:00:00+00,1832,CODSELL AVE,MAXWELL ST,Local,North York,6,43.756312,-79.446689,Intersection,At Intersection,Stop Sign,Clear,Daylight,Dry,Fatal,Pedestrian Collisions,Pedestrian,7,Fatal
Non-Fatal,2017,2017/09/15 04:00:00+00,652,STEELES AVE W,HIGHWAY 27  N,Major Arterial,Etobicoke York,1,43.755641,-79.61288,Mid-Block,Non Intersection,No Control,Clear,Daylight,Dry,Fatal,Turning Movement,Passenger,72,Non-Fatal
45,2017,2017/09/20 04:00:00+00,1953,BROADVIEW AVE,NEALON AVE,Minor Arterial,Toronto and East York,14,43.682852,-79.357181,Intersection,At Intersection,No Control,Clear,Dark,Dry,Fatal,Pedestrian Collisions,Pedestrian,72,Non-Fatal
Non-Fatal,2017,2017/09/27 04:00:00+00,2125,WARDEN AVE,CONTINENTAL PL,Major Arterial,Scarborough,21,43.763491,-79.301257,Intersection,At Intersection,No Control,Clear,Dark,Dry,Fatal,Pedestrian Collisions,Pedestrian,72,Fatal
Non-Fatal,2017,2017/09/27 04:00:00+00,2125,WARDEN AVE,CONTINENTAL PL,Major Arterial,Scarborough,21,43.763491,-79.301257,Intersection,At Intersection,No Control,Clear,Dark,Dry,Fatal,Pedestrian Collisions,Pedestrian,28,Fatal
Non-Fatal,2017,2017/09/28 04:00:00+00,1630,BIRCHMOUNT RD,ZENITH DR,Minor Arterial,Scarborough,20,43.711009,-79.269771,Intersection,Intersection Related,No Control,Clear,Daylight,Dry,Fatal,Pedestrian Collisions,Pedestrian,77,Non-Fatal
Non-Fatal,2017,2017/09/28 04:00:00+00,2135,4322 MCCOWAN RD,Non-Fatal,Major Arterial,Scarborough,23,43.829547,-79.274997,Mid-Block,Non Intersection,No Control,Clear,Dark,Slush,Non-Fatal,Turning Movement,Passenger,72,Non-Fatal
Non-Fatal,2017,2017/10/03 04:00:00+00,1623,SENTINEL RD,ASSINIBOINE RD,Minor Arterial,Etobicoke York,7,43.768195,-79.501659,Intersection,At Intersection,No Control,Clear,Daylight,Dry,Fatal,Pedestrian Collisions,Pedestrian,72,Non-Fatal
Non-Fatal,2017,2017/10/04 04:00:00+00,2308,900 YORK MILLS RD,Non-Fatal,Major Arterial,North York,16,43.755549,-79.34798,Mid-Block,Non Intersection,No Control,Clear,Dark,Dry,Fatal,Pedestrian Collisions,Pedestrian,72,Fatal
Non-Fatal,2017,2017/10/05 04:00:00+00,331,YONGE ST,LAWRENCE AVE W,Major Arterial,North York,815,43.725344,-79.40224,Mid-Block,Non Intersection,No Control,Clear,Dark,Dry,Fatal,Pedestrian Collisions,Pedestrian,72,Non-Fatal
25,2017,2017/10/18 04:00:00+00,906,COWAN AVE,KING  ST W,Major Arterial,Toronto and East York,4,43.63795,-79.431827,Intersection,At Intersection,Stop Sign,Clear,Daylight,Dry,Fatal,Cyclist Collisions,Cyclist,72,Fatal
Non-Fatal,2017,2017/10/31 04:00:00+00,2223,STEELES AVE W,KEELE ST,Major Arterial,Etobicoke York,76,43.781508,-79.494464,Intersection,At Intersection,Traffic Signal,Other,Dark,Other,Fatal,Turning Movement,Passenger,72,Fatal
Non-Fatal,2017,2017/11/02 04:00:00+00,840,161 THE WEST MALL,Non-Fatal,Minor Arterial,Etobicoke York,3,43.621218,-79.560214,Mid-Block,Non Intersection,No Control,Rain,Daylight,Slush,Fatal,Approaching,Driver,53,Fatal
Non-Fatal,2017,2017/11/10 05:00:00+00,2233,WARDEN AVE,WAYNE AVE,Major Arterial,Scarborough,21,43.738906,-79.292102,Mid-Block,Non Intersection,No Control,Clear,Dark,Slush,Non-Fatal,Turning Movement,Passenger,17,Non-Fatal
Non-Fatal,2017,2017/11/24 05:00:00+00,1148,SHEPPARD AVE E,VICTORIA PARK AVE,Major Arterial,Scarborough,22,43.775355,-79.322238,Mid-Block,Non Intersection,No Control,Clear,Daylight,Dry,Fatal,Pedestrian Collisions,Pedestrian,14,Non-Fatal
Non-Fatal,2017,2017/11/28 05:00:00+00,1212,EDITH DR,ORCHARD VIEW BLVD,Collector,North York,8,43.707171,-79.40327,Intersection,At Intersection,Stop Sign,Clear,Daylight,Dry,Fatal,Pedestrian Collisions,Pedestrian,72,Fatal
Non-Fatal,2017,2017/12/01 05:00:00+00,2330,BIRCHMOUNT RD,MERRYFIELD DR,Major Arterial,Scarborough,21,43.751868,-79.286601,Intersection,At Intersection,No Control,Clear,Dark,Dry,Fatal,Pedestrian Collisions,Pedestrian,72,Fatal
63,2017,2017/12/03 05:00:00+00,1253,PRICE ST,YONGE ST,Local,Toronto and East York,11,43.679961,-79.389858,Mid-Block,Non Intersection,No Control,Clear,Daylight,Dry,Fatal,Pedestrian Collisions,Pedestrian,72,Fatal
52,2017,2017/12/15 05:00:00+00,1237,CHURCH ST,WELLINGTON ST E,Minor Arterial,Toronto and East York,13,43.648543,-79.373821,Intersection,At Intersection,Traffic Signal,Other,Daylight,Other,Fatal,Pedestrian Collisions,Pedestrian,13,Non-Fatal
Non-Fatal,2017,2017/12/17 05:00:00+00,41,KINGSTON RD,GUILDWOOD PKWY,Major Arterial,Scarborough,24,43.749583,-79.20592,Intersection,At Intersection,Traffic Signal,Other,Dark,Other,Fatal,SMV Other,Driver,52,Fatal
Non-Fatal,2017,2017/12/18 05:00:00+00,1735,EGLINTON AVE W,WESTON RD,Major Arterial,Etobicoke York,5,43.685427,-79.495136,Mid-Block,Non Intersection,No Control,Clear,Daylight,Wet,Fatal,Pedestrian Collisions,Pedestrian,37,Fatal
86,2017,2017/12/20 05:00:00+00,1139,COLLEGE ST,OSSINGTON AVE,Major Arterial,Toronto and East York,911,43.654326,-79.422664,Intersection,At Intersection,Traffic Signal,Other,Daylight,Other,Fatal,Cyclist Collisions,Cyclist,72,Non-Fatal
Non-Fatal,2017,2017/12/20 05:00:00+00,1845,PASSMORE AVE,MAYBROOK DR,Collector,Scarborough,23,43.827811,-79.262767,Mid-Block,Non Intersection,No Control,Other,Daylight,Other,Fatal,Pedestrian Collisions,Pedestrian,3,Fatal
Non-Fatal,2017,2017/12/21 05:00:00+00,1528,KINGSTON RD,WARDEN AVE,Major Arterial,Scarborough,20,43.687686,-79.270885,Intersection,At Intersection,Traffic Signal,Clear,Daylight,Dry,Fatal,Pedestrian Collisions,Pedestrian,26,Fatal
Non-Fatal,2018,2018/01/01 05:00:00+00,125,BAYVIEW AVE,POTTERY RD,Major Arterial,North York,1115,43.692008,-79.361987,Mid-Block,Non Intersection,No Control,Clear,Dark,Slush,Non-Fatal,Turning Movement,Passenger,75,Non-Fatal
Non-Fatal,2018,2018/01/02 05:00:00+00,1718,BRIMLEY RD,HEATHER RD,Major Arterial,Scarborough,23,43.790507,-79.269923,Intersection,Intersection Related,No Control,Clear,Dusk,Slush,Non-Fatal,Turning Movement,Passenger,82,Non-Fatal
55,2018,2018/01/05 05:00:00+00,1145,SHEPPARD ST,ADELAIDE ST W,Major Arterial,Toronto and East York,10,43.649542,-79.382091,Intersection,At Intersection,Traffic Signal,Other,Daylight,Other,Fatal,Pedestrian Collisions,Pedestrian,42,Non-Fatal
Non-Fatal,2018,2018/01/07 05:00:00+00,1816,EGLINTON AVE W,ROYAL YORK RD,Major Arterial,Etobicoke York,2,43.68162,-79.52972,Mid-Block,Non Intersection,Traffic Signal,Other,Daylight,Other,Fatal,Approaching,Driver,72,Fatal
Non-Fatal,2018,2018/01/07 05:00:00+00,2151,STEELES AVE E,EASTVALE  DR,Major Arterial,Scarborough,23,43.837935,-79.245151,Intersection,Intersection Related,No Control,Other,Dark,Other,Fatal,Pedestrian Collisions,Pedestrian,72,Non-Fatal
Non-Fatal,2018,2018/01/09 05:00:00+00,1817,EGLINTON AVE E,ROSEMOUNT DR,Major Arterial,Scarborough,2120,43.730475,-79.275096,Mid-Block,Non Intersection,No Control,Clear,Dark,Wet,Fatal,Pedestrian Collisions,Pedestrian,82,Non-Fatal
Non-Fatal,2018,2018/01/15 05:00:00+00,1520,23 IANHALL RD,Non-Fatal,Local,North York,6,43.727904,-79.488223,Mid-Block,Non Intersection,No Control,Snow,Daylight,Loose Snow,Fatal,Pedestrian Collisions,Pedestrian,72,Fatal
Non-Fatal,2018,2018/01/24 05:00:00+00,1150,WARDEN AVE,BAMBURGH CRCL,Major Arterial,Scarborough,22,43.81428,-79.324542,Mid-Block,Non Intersection,Traffic Signal,Clear,Daylight,Dry,Fatal,Pedestrian Collisions,Pedestrian,72,Non-Fatal
Non-Fatal,2018,2018/02/02 05:00:00+00,943,FINCH AVE W,ARDWICK BLVD,Major Arterial,Etobicoke York,7,43.747714,-79.562267,Intersection,At Intersection,Traffic Signal,Clear,Daylight,Dry,Fatal,Pedestrian Collisions,Pedestrian,35,Non-Fatal
Non-Fatal,2018,2018/02/17 05:00:00+00,2319,3230 BAYVIEW AVE,Non-Fatal,Major Arterial,North York,1817,43.788287,-79.392772,Mid-Block,Non Intersection,No Control,Rain,Dark,Slush,Fatal,SMV Other,Driver,19,Fatal
Non-Fatal,2018,2018/02/20 05:00:00+00,1645,BATHURST ST,ELLERSLIE AVE,Major Arterial,North York,618,43.765391,-79.440891,Intersection,At Intersection,Traffic Signal,Rain,Daylight,Wet,Fatal,Pedestrian Collisions,Pedestrian,48,Non-Fatal
Non-Fatal,2018,2018/02/21 05:00:00+00,1838,37 WILLIAM KITCHEN RD,Non-Fatal,Collector,Scarborough,21,43.773322,-79.282741,Mid-Block,Non Intersection,No Control,Clear,Dark,Slush,Non-Fatal,Turning Movement,Passenger,42,Non-Fatal
Non-Fatal,2018,2018/02/27 05:00:00+00,1530,CANONGATE TRL,OCKWELL MANOR  DR,Collector,Scarborough,22,43.818522,-79.306857,Intersection,At Intersection,No Control,Clear,Daylight,Dry,Fatal,Pedestrian Collisions,Pedestrian,27,Fatal
Non-Fatal,2018,2018/03/02 05:00:00+00,1914,GREENCEDAR CRCT,DAPHNE RD,Collector,Scarborough,24,43.756827,-79.22932,Intersection,At Intersection,No Control,Other,Dark,Other,Fatal,Pedestrian Collisions,Pedestrian,18,Fatal
60,2018,2018/03/15 04:00:00+00,226,COLLEGE ST,HURON ST,Major Arterial,Toronto and East York,11,43.658187,-79.398158,Intersection,At Intersection,Traffic Signal,Clear,Dark,Slush,Non-Fatal,Turning Movement,Passenger,18,Non-Fatal
Non-Fatal,2018,2018/03/21 04:00:00+00,331,F G GARDINER XY  W,ROYAL YORK RD,Non-Fatal,Etobicoke York,3,43.623107,-79.499957,Mid-Block,Non Intersection,No Control,Clear,Dark,Slush,Non-Fatal,Turning Movement,Passenger,48,Non-Fatal
70,2018,2018/03/28 04:00:00+00,1749,MOUNT PLEASANT RD,CARSTOWE RD,Major Arterial,Toronto and East York,11,43.68439,-79.383662,Mid-Block,Non Intersection,No Control,Clear,Daylight,Dry,Fatal,Turning Movement,Motorcycle Driver,72,Non-Fatal
Non-Fatal,2018,2018/03/29 04:00:00+00,1221,WILSON AVE,JULIAN RD,Major Arterial,North York,6,43.724532,-79.491092,Intersection,Intersection Related,Traffic Signal,Rain,Daylight,Wet,Fatal,Pedestrian Collisions,Pedestrian,7,Fatal
Non-Fatal,2018,2018/04/13 04:00:00+00,1512,JANE ST,BEVERLY HILLS DR,Major Arterial,Etobicoke York,76,43.719008,-79.508113,Intersection,At Intersection,Traffic Signal,Rain,Daylight,Slush,Fatal,Pedestrian Collisions,Pedestrian,32,Fatal
Non-Fatal,2018,2018/04/21 04:00:00+00,2341,SEWELLS RD,HUPFIELD TRL,Minor Arterial,Scarborough,25,43.814105,-79.213535,Mid-Block,Non Intersection,No Control,Clear,Dark,Slush,Non-Fatal,Turning Movement,Passenger,58,Non-Fatal
Non-Fatal,2018,2018/04/23 04:00:00+00,20,FINCH AVE W,SIGNET DR,Major Arterial,Etobicoke York,7,43.753218,-79.53622,Intersection,At Intersection,Traffic Signal,Clear,Dark,Slush,Non-Fatal,Turning Movement,Passenger,22,Non-Fatal
Non-Fatal,2018,2018/05/04 04:00:00+00,2354,DIXON RD,27 S DIXON W RAMP,Major Arterial,Etobicoke York,1,43.688479,-79.583987,Mid-Block,Overpass or Bridge,No Control,Rain,Dark,Slush,Fatal,Pedestrian Collisions,Pedestrian,72,Fatal
Non-Fatal,2018,2018/05/15 04:00:00+00,935,YONGE ST,LAWRENCE AVE E,Major Arterial,North York,815,43.725032,-79.402156,Intersection,At Intersection,Traffic Signal,Rain,Daylight,Slush,Fatal,Pedestrian Collisions,Pedestrian,32,Fatal
80,2018,2018/05/15 04:00:00+00,1558,LAKE SHORE BV W,COLBORNE LODGE DR,Major Arterial,Toronto and East York,4,43.637709,-79.458881,Intersection,At Intersection,Traffic Signal,Clear,Daylight,Dry,Fatal,Cyclist Collisions,Cyclist,85,Non-Fatal
Non-Fatal,2018,2018/05/15 04:00:00+00,2237,LAKE SHORE BLVD W,THIRTEENTH ST,Major Arterial,Etobicoke York,3,43.599005,-79.512874,Intersection,Intersection Related,No Control,Rain,Dark,Slush,Fatal,Sideswipe,Passenger,82,Fatal
100,2018,2018/05/16 04:00:00+00,800,JONES AVE,DUNDAS ST E,Minor Arterial,Toronto and East York,14,43.666098,-79.334277,Intersection,At Intersection,Traffic Signal,Clear,Daylight,Dry,Fatal,Cyclist Collisions,Cyclist,72,Non-Fatal
Non-Fatal,2018,2018/05/20 04:00:00+00,2307,WILSON AVE,401 C W WILSON AV RAMP,Major Arterial,Etobicoke York,6,43.736342,-79.438586,Mid-Block,Non Intersection,No Control,Clear,Dark,Slush,Non-Fatal,Turning Movement,Passenger,77,Non-Fatal
Non-Fatal,2018,2018/05/29 04:00:00+00,934,STEELES AVE E,KENNEDY RD,Major Arterial,Scarborough,22,43.823569,-79.307048,Intersection,Intersection Related,No Control,Clear,Daylight,Dry,Fatal,Other,Passenger,72,Fatal
Non-Fatal,2018,2018/05/30 04:00:00+00,329,MARTIN GROVE RD,VULCAN ST,Major Arterial,Etobicoke York,1,43.705172,-79.577121,Intersection,At Intersection,Traffic Signal,Rain,Dark,Slush,Fatal,Turning Movement,Motorcycle Driver,52,Fatal
Non-Fatal,2018,2018/06/02 04:00:00+00,1903,LAKE SHORE BLVD W,BRITISH COLUMBIA RD,Major Arterial,North York,10,43.630515,-79.427158,Mid-Block,Non Intersection,No Control,Clear,Daylight,Dry,Fatal,Approaching,Motorcycle Driver,42,Non-Fatal
Non-Fatal,2018,2018/06/11 04:00:00+00,1500,DUFFERIN ST,BRIAR HILL AVE,Major Arterial,North York,8,43.702281,-79.452075,Intersection,Intersection Related,Traffic Signal,Clear,Daylight,Dry,Fatal,Pedestrian Collisions,Pedestrian,37,Non-Fatal
40,2018,2018/06/12 04:00:00+00,1204,ST GEORGE ST,BLOOR ST W,Major Arterial,Toronto and East York,11,43.667445,-79.399799,Intersection,At Intersection,Traffic Signal,Clear,Daylight,Dry,Fatal,Cyclist Collisions,Cyclist,63,Non-Fatal
Non-Fatal,2018,2018/06/14 04:00:00+00,558,ST CLAIR AVE E,DANFORTH RD,Major Arterial,Scarborough,20,43.716773,-79.259883,Intersection,At Intersection,Traffic Signal,Clear,Daylight,Dry,Fatal,Turning Movement,Motorcycle Driver,7,Non-Fatal
Non-Fatal,2018,2018/06/23 04:00:00+00,1259,EGLINTON AVE W,CASTLE KNOCK RD,Major Arterial,North York,812,43.703868,-79.411601,Intersection,At Intersection,Traffic Signal,Rain,Daylight,Wet,Fatal,Pedestrian Collisions,Pedestrian,72,Non-Fatal
Non-Fatal,2018,2018/06/29 04:00:00+00,123,STEELES AVE W,KIPLING AVE,Major Arterial,Etobicoke York,1,43.759535,-79.589862,Intersection,At Intersection,Traffic Signal,Clear,Dark,Slush,Non-Fatal,Turning Movement,Passenger,72,Non-Fatal
Non-Fatal,2018,2018/07/25 04:00:00+00,45,DORIS AVE,HOLMES AVE,Minor Arterial,North York,18,43.777663,-79.413097,Mid-Block,Non Intersection,No Control,Clear,Dark,Slush,Non-Fatal,Turning Movement,Passenger,72,Non-Fatal
Non-Fatal,2018,2018/07/26 04:00:00+00,58,EGLINTON AVE W,MARLEE AVE,Major Arterial,North York,812,43.69797,-79.439349,Intersection,At Intersection,Traffic Signal,Clear,Dark,Dry,Fatal,Pedestrian Collisions,Pedestrian,28,Fatal
Non-Fatal,2018,2018/07/29 04:00:00+00,1029,144 NORSEMAN ST,Non-Fatal,Collector,Etobicoke York,3,43.633887,-79.520046,Mid-Block,Non Intersection,No Control,Clear,Daylight,Dry,Fatal,SMV Other,Motorcycle Driver,77,Fatal
Non-Fatal,2018,2018/07/30 04:00:00+00,1427,WARDEN AVE,FatalIRFatalX CRES,Major Arterial,Scarborough,20,43.716109,-79.282733,Intersection,At Intersection,Traffic Signal,Clear,Daylight,Dry,Fatal,Pedestrian Collisions,Pedestrian,72,Fatal
Non-Fatal,2018,2018/08/06 04:00:00+00,914,CLAREMORE AVE,CRAIGLEE DR,Local,Scarborough,20,43.706175,-79.254787,Intersection,At Intersection,Stop Sign,Clear,Daylight,Dry,Fatal,Pedestrian Collisions,Wheelchair,72,Fatal
Non-Fatal,2018,2018/08/09 04:00:00+00,50,HIGHWAY 2A  W,HIGHLAND CREEK OVERPASS,Expressway,Scarborough,25,43.784983,-79.164645,Mid-Block,Non Intersection,No Control,Clear,Dark,Dry,Fatal,Pedestrian Collisions,Pedestrian,72,Non-Fatal
Non-Fatal,2018,2018/08/10 04:00:00+00,2055,BELLAMY RD N,BRIMORTON DR,Minor Arterial,Scarborough,24,43.767378,-79.239131,Intersection,At Intersection,Traffic Signal,Clear,Daylight,Dry,Fatal,Angle,Motorcycle Driver,72,Fatal
Non-Fatal,2018,2018/08/16 04:00:00+00,1555,LESLIE ST,EGLINTON AVE E,Major Arterial,North York,1516,43.718589,-79.350383,Intersection,Intersection Related,Stop Sign,Clear,Daylight,Dry,Fatal,Turning Movement,Driver,72,Fatal
Non-Fatal,2018,2018/09/05 04:00:00+00,1405,TWENTY SIXTH ST,LABURNHAM AVE,Local,Etobicoke York,3,43.599353,-79.525653,Mid-Block,Non Intersection,No Control,Clear,Daylight,Dry,Fatal,Pedestrian Collisions,Pedestrian,72,Non-Fatal
Non-Fatal,2018,2018/09/11 04:00:00+00,1708,LAKE SHORE BLVD W,SIXTH ST,Major Arterial,Etobicoke York,3,43.600909,-79.504077,Intersection,Non Intersection,No Control,Clear,Daylight,Dry,Fatal,Pedestrian Collisions,Pedestrian,53,Non-Fatal
60,2018,2018/09/15 04:00:00+00,240,PARKSIDE DR,INDIAN VALLEY CRES,Major Arterial,Toronto and East York,4,43.650427,-79.45827,Mid-Block,Non Intersection,No Control,Clear,Dark,Dry,Fatal,Approaching,Motorcycle Driver,17,Non-Fatal
Non-Fatal,2018,2018/09/18 04:00:00+00,1850,KEELE ST,AILEEN AVE,Major Arterial,Etobicoke York,5,43.683169,-79.472026,Intersection,At Intersection,No Control,Clear,Daylight,Dry,Fatal,Turning Movement,Motorcycle Driver,14,Fatal
Non-Fatal,2018,2018/09/20 04:00:00+00,1600,DUFFERIN ST,CASTLEFIELD AVE,Major Arterial,North York,8,43.700686,-79.451724,Intersection,At Intersection,Traffic Signal,Clear,Daylight,Dry,Fatal,Pedestrian Collisions,Pedestrian,72,Non-Fatal
50,2018,2018/09/21 04:00:00+00,1600,NUTHATCH LANE,DOCTOR O LANE,Laneway,Toronto and East York,13,43.663325,-79.369693,Intersection,Intersection Related,No Control,Clear,Daylight,Dry,Fatal,Pedestrian Collisions,Pedestrian,72,Non-Fatal
Non-Fatal,2018,2018/09/26 04:00:00+00,709,ST CLAIR AVE E,JEANETTE ST,Minor Arterial,Scarborough,20,43.719565,-79.247051,Intersection,At Intersection,Traffic Signal,Clear,Daylight,Dry,Fatal,Pedestrian Collisions,Pedestrian,72,Non-Fatal
Non-Fatal,2018,2018/09/26 04:00:00+00,2053,3850 SHEPPARD AVE E,Non-Fatal,Major Arterial,Scarborough,22,43.782229,-79.292499,Mid-Block,Non Intersection,No Control,Clear,Dark,Slush,Non-Fatal,Turning Movement,Passenger,13,Non-Fatal
35,2018,2018/10/01 04:00:00+00,622,THE QUEENSWAY,WINDERMERE AVE,Major Arterial,Toronto and East York,4,43.637206,-79.469287,Mid-Block,Non Intersection,No Control,Rain,Daylight,Slush,Non-Fatal,Turning Movement,Passenger,52,Non-Fatal
Non-Fatal,2018,2018/10/05 04:00:00+00,1852,708 SCARLETT RD,Non-Fatal,Major Arterial,Etobicoke York,2,43.695372,-79.520099,Mid-Block,Non Intersection,No Control,Clear,Daylight,Dry,Fatal,Turning Movement,Motorcycle Driver,37,Non-Fatal
Non-Fatal,2018,2018/10/08 04:00:00+00,117,SHEPPARD AVE E,BONNINGTON PL,Major Arterial,North York,18,43.762419,-79.406253,Mid-Block,Non Intersection,No Control,Clear,Dark,Slush,Non-Fatal,Turning Movement,Passenger,72,Non-Fatal
53,2018,2018/10/08 04:00:00+00,2015,685 QUEEN ST E,DUNDAS ST E,Major Arterial,Toronto and East York,14,43.658515,-79.35094,Intersection,At Intersection,No Control,Clear,Dusk,Slush,Non-Fatal,Turning Movement,Passenger,3,Non-Fatal
45,2018,2018/10/18 04:00:00+00,1217,OSSINGTON AVE,NORTHUMBERLAND ST,Minor Arterial,Toronto and East York,911,43.663294,-79.426227,Mid-Block,Non Intersection,No Control,Clear,Daylight,Dry,Fatal,Pedestrian Collisions,Pedestrian,26,Non-Fatal
Non-Fatal,2018,2018/11/01 04:00:00+00,1712,AVENUE RD,GLENGARRY AVE,Major Arterial,North York,8,43.722941,-79.415889,Intersection,Intersection Related,No Control,Rain,Dark,Dry,Fatal,Rear End,Passenger,75,Fatal
Non-Fatal,2018,2018/11/01 04:00:00+00,2043,KIPLING  AVE,ANNABELLE  DR,Major Arterial,Etobicoke York,1,43.750846,-79.58575,Intersection,At Intersection,Traffic Signal,Clear,Dark,Dry,Fatal,Pedestrian Collisions,Pedestrian,82,Non-Fatal
Non-Fatal,2018,2018/11/09 05:00:00+00,650,ELLESMERE RD,BIRCHMOUNT RD,Major Arterial,Scarborough,21,43.763205,-79.291911,Mid-Block,Non Intersection,No Control,Clear,Dawn,Slush,Non-Fatal,Turning Movement,Passenger,42,Non-Fatal
Non-Fatal,2018,2018/11/12 05:00:00+00,1822,ELLESMERE  RD,NEILSON  RD,Major Arterial,Scarborough,24,43.783148,-79.202258,Mid-Block,Non Intersection,No Control,Clear,Dark,Slush,Non-Fatal,Turning Movement,Passenger,72,Non-Fatal
Non-Fatal,2018,2018/11/20 05:00:00+00,1804,665 LAWRENCE AVE W,Non-Fatal,Major Arterial,North York,8,43.715853,-79.444942,Intersection,At Intersection,Traffic Signal,Clear,Dark,Slush,Non-Fatal,Turning Movement,Passenger,72,Non-Fatal
Non-Fatal,2018,2018/11/25 05:00:00+00,1750,BELLAMY RD N,CEDAR BRAE BLVD,Minor Arterial,Scarborough,21,43.741534,-79.232578,Intersection,At Intersection,Stop Sign,Clear,Dark,Slush,Non-Fatal,Turning Movement,Passenger,82,Non-Fatal
Non-Fatal,2018,2018/12/04 05:00:00+00,1932,MIDLAND AVE,DORCOT AVE,Major Arterial,Scarborough,21,43.758383,-79.267612,Mid-Block,Non Intersection,No Control,Clear,Dark,Dry,Fatal,Pedestrian Collisions,Pedestrian,72,Fatal
Non-Fatal,2018,2018/12/07 05:00:00+00,1830,FINCH AVE E,WAYSIDE AVE,Major Arterial,Scarborough,22,43.80044,-79.299564,Intersection,Intersection Related,No Control,Clear,Dark,Dry,Fatal,Pedestrian Collisions,Pedestrian,72,Fatal
54,2018,2018/12/22 05:00:00+00,623,DAVENPORT  RD,HAZELTON  AVE,Major Arterial,Toronto and East York,11,43.67512,-79.394153,Mid-Block,Non Intersection,No Control,Clear,Dawn,Slush,Non-Fatal,Turning Movement,Passenger,35,Non-Fatal
Non-Fatal,2018,2018/12/26 05:00:00+00,1853,4968 DUNDAS ST W,Non-Fatal,Major Arterial,Etobicoke York,3,43.647521,-79.529773,Mid-Block,Non Intersection,No Control,Clear,Dark,Slush,Non-Fatal,Turning Movement,Passenger,19,Non-Fatal
Non-Fatal,2019,2019/01/02 05:00:00+00,1405,LEXINGTON AVE,SILVERSTONE DR,Local,Etobicoke York,1,43.744177,-79.601718,Mid-Block,Non Intersection,No Control,Clear,Daylight,Dry,Fatal,SMV Other,Passenger,48,Fatal
63,2019,2019/01/07 05:00:00+00,2012,CLOSE  AVE,QUEEN  ST W,Local,Toronto and East York,4,43.639567,-79.435504,Mid-Block,Non Intersection,No Control,Rain,Dark,Slush,Non-Fatal,Turning Movement,Passenger,42,Non-Fatal
36,2019,2019/01/08 05:00:00+00,1838,O CONNOR DR,ST CLAIR AVE E,Major Arterial,Toronto and East York,19,43.70674,-79.311771,Mid-Block,Non Intersection,No Control,Rain,Dark,Slush,Non-Fatal,Turning Movement,Passenger,27,Non-Fatal
Non-Fatal,2019,2019/01/12 05:00:00+00,2213,MCCOWAN  RD,BRIMORTON  DR,Major Arterial,Scarborough,2124,43.764414,-79.248561,Mid-Block,Non Intersection,No Control,Clear,Dark,Slush,Non-Fatal,Turning Movement,Passenger,10,Non-Fatal
21,2019,2019/01/15 05:00:00+00,555,155 UNIVERSITY AVE,DUNDAS ST E,Major Arterial,Toronto and East York,10,43.648467,-79.38531,Mid-Block,Laneway,No Control,Clear,Dark,Slush,Non-Fatal,Turning Movement,Passenger,72,Non-Fatal
Non-Fatal,2019,2019/01/16 05:00:00+00,1303,ALLEN X S LAWRENCE E RAMP,LAWRENCE AVE W,Major Arterial,North York,8,43.715869,-79.444942,Intersection,At Intersection,Traffic Signal,Clear,Daylight,Dry,Fatal,Pedestrian Collisions,Pedestrian,72,Non-Fatal
12,2019,2019/01/16 05:00:00+00,1332,2350 DUFFERIN ST,DUNDAS ST E,Major Arterial,Toronto and East York,912,43.69525,-79.450084,Mid-Block,Non Intersection,No Control,Clear,Daylight,Dry,Fatal,Pedestrian Collisions,Pedestrian,72,Fatal
25,2019,2019/01/17 05:00:00+00,2122,LENNOX  ST,BATHURST  ST,Major Arterial,Toronto and East York,11,43.663756,-79.410678,Intersection,At Intersection,Traffic Signal,Clear,Dark,Slush,Non-Fatal,Turning Movement,Passenger,50,Non-Fatal
Non-Fatal,2019,2019/01/19 05:00:00+00,530,MILLWOOD RD,LAIRD DR,Major Arterial,North York,15,43.702204,-79.359363,Mid-Block,Non Intersection,No Control,Clear,Dark,Slush,Non-Fatal,Turning Movement,Passenger,53,Non-Fatal
Non-Fatal,2019,2019/02/01 05:00:00+00,258,MEADOWVALE RD,GENERATION BLVD,Minor Arterial,Scarborough,25,43.804152,-79.16875,Intersection,At Intersection,Stop Sign,Clear,Dark,Slush,Non-Fatal,Turning Movement,Passenger,75,Non-Fatal
Non-Fatal,2019,2019/02/16 05:00:00+00,907,WARDEN  AVE,BAMBURGH  CRCL,Major Arterial,Scarborough,22,43.815394,-79.324634,Mid-Block,Non Intersection,No Control,Clear,Daylight,Wet,Fatal,Pedestrian Collisions,Pedestrian,17,Non-Fatal
1143989,2009,2009/12/23 05:00:00+00,935,KINGSTON RD,MARKHAM RD,Major Arterial,Scarborough,20,43.738145,-79.21779,Mid-Block,At Intersection,No Control,Clear,Daylight,Dry,Fatal,Sideswipe,Driver,52,Fatal
1144154,2009,2009/12/24 05:00:00+00,640,MARWILL ST,ALMORE AVE,Local,North York,6,43.746845,-79.44449,Intersection,Intersection Related,No Control,Clear,Dark,Dry,Fatal,Pedestrian Collisions,Pedestrian,37,Fatal
1146660,2010,2010/01/08 05:00:00+00,1810,FINCH AVE W,YORK GATE BLVD,Major Arterial,Etobicoke York,7,43.756945,-79.51989,Mid-Block,At Intersection,No Control,Clear,Dark,Dry,Fatal,Pedestrian Collisions,Pedestrian,77,Fatal
1146864,2010,2010/01/10 05:00:00+00,329,KING ST E,PARLIAMENT ST,Major Arterial,Toronto and East York,13,43.652745,-79.36319,Intersection,At Intersection,Traffic Signal,Clear,Dark,Dry,Fatal,Approaching,Driver,45,Fatal
1147341,2010,2010/01/12 05:00:00+00,1240,MARTIN GROVE RD,EGLINTON AVE W,Major Arterial,Etobicoke York,12,43.674445,-79.56319,Intersection,At Intersection,Traffic Signal,Clear,Daylight,Dry,Fatal,Pedestrian Collisions,Pedestrian,18,Non-Fatal
1147342,2010,2010/01/12 05:00:00+00,1317,DUNDAS ST W,RONCESVALLES AVE,Minor Arterial,Toronto and East York,4,43.653845,-79.45179,Intersection,At Intersection,Traffic Signal,Clear,Daylight,Dry,Fatal,Pedestrian Collisions,Passenger,72,Non-Fatal
1148390,2010,2010/01/18 05:00:00+00,655,MOUNT PLEASANT RD,EGLINTON AVE E,Major Arterial,North York,1215,43.708445,-79.39019,Intersection,At Intersection,Traffic Signal,Clear,Dark,Dry,Fatal,Pedestrian Collisions,Pedestrian,82,Non-Fatal
1148773,2010,2010/01/20 05:00:00+00,700,DUFFERIN ST,PRESTON RD,Major Arterial,Toronto and East York,912,43.691345,-79.44849,Mid-Block,At Intersection,No Control,Clear,Dark,Dry,Fatal,Pedestrian Collisions,Pedestrian,32,Non-Fatal
1149291,2010,2010/01/22 05:00:00+00,1132,DANFORTH AVE,BROADVIEW AVE,Major Arterial,Toronto and East York,14,43.676145,-79.35889,Intersection,At Intersection,Traffic Signal,Clear,Daylight,Dry,Fatal,Pedestrian Collisions,Pedestrian,18,Non-Fatal
1149557,2010,2010/01/24 05:00:00+00,32,QUEEN ST E,MUNRO ST,Major Arterial,Toronto and East York,14,43.658545,-79.35139,Intersection,At Intersection,No Control,Clear,Dark,Dry,Fatal,Pedestrian Collisions,Pedestrian,7,Non-Fatal
1149753,2010,2010/01/25 05:00:00+00,1825,SYMINGTON AVE,DAVENPORT RD,Minor Arterial,Toronto and East York,9,43.670745,-79.45329,Intersection,At Intersection,Traffic Signal,Clear,Dark,Wet,Fatal,Pedestrian Collisions,Pedestrian,72,Non-Fatal
1153073,2010,2010/02/15 05:00:00+00,9,LAWRENCE AVE E,PHARMACY AVE,Major Arterial,Scarborough,21,43.743245,-79.30459,Intersection,Intersection Related,Traffic Signal,Clear,Dark,Dry,Fatal,Turning Movement,Driver,72,Fatal
1153473,2010,2010/02/18 05:00:00+00,18,PHARMACY AVE,ST BEDES RD,Minor Arterial,Scarborough,20,43.704645,-79.28869,Intersection,At Intersection,No Control,Clear,Dark,Wet,Fatal,SMV Other,Passenger,42,Fatal
1154990,2010,2010/02/28 05:00:00+00,2300,VILLIERS ST,MUNITION ST,Local,Toronto and East York,14,43.648545,-79.34989,Mid-Block,Intersection Related,No Control,Clear,Dark,Dry,Fatal,SMV Unattended Vehicle,Driver,20,Fatal
1155407,2010,2010/03/02 05:00:00+00,1605,HORNER AVE,EDILOU DR,Minor Arterial,Etobicoke York,3,43.604745,-79.53139,Intersection,Intersection Related,No Control,Clear,Daylight,Dry,Fatal,Pedestrian Collisions,Pedestrian,42,Fatal
1156744,2010,2010/03/09 05:00:00+00,1504,STEELES AVE W,GIHON SPRING DR,Major Arterial,Etobicoke York,1,43.759545,-79.59529,Mid-Block,Intersection Related,No Control,Clear,Daylight,Dry,Fatal,Approaching,Driver,32,Fatal
1157272,2010,2010/03/12 05:00:00+00,523,ROYAL DR,DON VALLEY PARKWAY  N,Major Arterial,Toronto and East York,14,43.672745,-79.35879,Mid-Block,Intersection Related,No Control,Clear,Dark,Dry,Fatal,SMV Other,Truck Driver,48,Fatal
1162012,2010,2010/04/13 04:00:00+00,559,STEELES AVE E,BIRCHMOUNT RD,Major Arterial,Scarborough,22,43.821345,-79.31689,Intersection,At Intersection,Traffic Signal,Clear,Dawn,Dry,Fatal,Angle,Passenger,18,Fatal
1167187,2010,2010/05/06 04:00:00+00,1630,WELLINGTON ST W,SIMCOE ST,Minor Arterial,Toronto and East York,10,43.645845,-79.38629,Mid-Block,Intersection Related,No Control,Clear,Daylight,Dry,Fatal,Angle,Passenger,42,Fatal
1168396,2010,2010/05/13 04:00:00+00,1136,DUNDAS ST W,COLLEGE ST,Minor Arterial,Toronto and East York,9,43.650445,-79.44189,Mid-Block,Intersection Related,No Control,Clear,Daylight,Dry,Fatal,Pedestrian Collisions,Pedestrian,7,Fatal
1169790,2010,2010/05/25 04:00:00+00,1028,ORTON PARK RD,AMBOY RD,Minor Arterial,Scarborough,24,43.767545,-79.20709,Mid-Block,Intersection Related,No Control,Clear,Daylight,Dry,Fatal,Approaching,Motorcycle Driver,32,Fatal
1171250,2010,2010/06/03 04:00:00+00,120,DUFFERIN ST,ST CLAIR AVE W,Major Arterial,Toronto and East York,9,43.677945,-79.44309,Intersection,At Intersection,Traffic Signal,Rain,Dark,Wet,Fatal,Pedestrian Collisions,Pedestrian,58,Non-Fatal
1171997,2010,2010/06/06 04:00:00+00,822,UNIVERSITY AVE,ORDE ST,Major Arterial,Toronto and East York,11,43.658744,-79.389987,Intersection,Intersection Related,No Control,Rain,Daylight,Wet,Fatal,Pedestrian Collisions,Pedestrian,22,Fatal
1172992,2010,2010/06/12 04:00:00+00,916,ISLINGTON AVE,THE WESTWAY,Major Arterial,Etobicoke York,2,43.688645,-79.54289,Intersection,At Intersection,Traffic Signal,Clear,Daylight,Dry,Fatal,Angle,Driver,72,Fatal
1176916,2010,2010/07/13 04:00:00+00,2035,KIPLING AVE,BELFIELD RD,Major Arterial,Etobicoke York,1,43.704845,-79.56349,Intersection,At Intersection,Traffic Signal,Clear,Dark,Dry,Fatal,Angle,Driver,15,Fatal
1177531,2010,2010/07/16 04:00:00+00,1647,JANE ST,DUNDAS ST W,Major Arterial,Toronto and East York,4,43.665745,-79.49119,Intersection,At Intersection,Traffic Signal,Clear,Daylight,Dry,Fatal,Turning Movement,Passenger,14,Non-Fatal
1177531,2010,2010/07/16 04:00:00+00,1647,JANE ST,DUNDAS ST W,Major Arterial,Toronto and East York,4,43.665745,-79.49119,Intersection,At Intersection,Traffic Signal,Clear,Daylight,Dry,Fatal,Turning Movement,Passenger,99,Non-Fatal
1177627,2010,2010/07/18 04:00:00+00,110,GREENCEDAR CRCT,DAPHNE RD,Collector,Scarborough,24,43.756845,-79.22939,Intersection,At Intersection,No Control,Clear,Dark,Dry,Fatal,SMV Other,Passenger,18,Fatal
1179891,2010,2010/07/29 04:00:00+00,1149,YONGE ST,YORK MILLS RD,Major Arterial,North York,815,43.744145,-79.40669,Intersection,Intersection Related,Traffic Signal,Clear,Daylight,Dry,Fatal,Angle,Driver,66,Fatal
1180110,2010,2010/07/31 04:00:00+00,700,GRANTBROOK ST,CHARLTON BLVD,Collector,North York,18,43.781245,-79.43289,Intersection,At Intersection,Stop Sign,Clear,Daylight,Dry,Fatal,Angle,Passenger,33,Fatal
1184434,2010,2010/08/20 04:00:00+00,2215,LAKE SHORE BLVD E,JOSEPH DUGGAN  RD,Major Arterial,Toronto and East York,19,43.664344,-79.306186,Intersection,Intersection Related,Traffic Signal,Clear,Dark,Dry,Fatal,Pedestrian Collisions,Pedestrian,72,Non-Fatal
1189134,2010,2010/09/14 04:00:00+00,1055,SPADINA AVE,SULLIVAN ST,Major Arterial,Toronto and East York,10,43.650945,-79.39729,Intersection,Intersection Related,No Control,Clear,Daylight,Dry,Fatal,Pedestrian Collisions,Pedestrian,82,Fatal
1189375,2010,2010/09/15 04:00:00+00,418,WESTON RD,CHURCH ST,Minor Arterial,Etobicoke York,5,43.703245,-79.52599,Mid-Block,Intersection Related,No Control,Clear,Dark,Dry,Fatal,SMV Unattended Vehicle,Driver,55,Fatal
1191546,2010,2010/09/26 04:00:00+00,2235,HIGHWAY 27  N,VICE REGENT BLVD,Major Arterial,Etobicoke York,1,43.711345,-79.59279,Intersection,At Intersection,Stop Sign,Clear,Dark,Dry,Fatal,Turning Movement,Passenger,11,Fatal
1191582,2010,2010/09/26 04:00:00+00,2309,LAKE SHORE BLVD W,COLBORNE LODGE DR,Major Arterial,Toronto and East York,4,43.637945,-79.45899,Intersection,At Intersection,Traffic Signal,Clear,Dark,Dry,Fatal,Cyclist Collisions,Cyclist,72,Non-Fatal
1193747,2010,2010/10/07 04:00:00+00,2044,DORIS AVE,HOLLYWOOD AVE,Minor Arterial,North York,18,43.765745,-79.40909,Mid-Block,Intersection Related,Pedestrian Crossover,Clear,Dark,Dry,Fatal,Pedestrian Collisions,Pedestrian,42,Fatal
1202173,2010,2010/11/17 05:00:00+00,818,DUNDAS ST W,KENNETH AVE,Minor Arterial,Toronto and East York,4,43.662445,-79.45589,Intersection,Intersection Related,No Control,Rain,Daylight,Wet,Fatal,Pedestrian Collisions,Pedestrian,52,Fatal
1202989,2010,2010/11/19 05:00:00+00,744,LOWER SPADINA AVE,LAKE SHORE BLVD W,Major Arterial,Toronto and East York,10,43.638445,-79.39219,Intersection,At Intersection,Traffic Signal,Clear,Daylight,Dry,Fatal,Cyclist Collisions,Passenger,72,Non-Fatal
1204296,2010,2010/11/26 05:00:00+00,1719,HUMEWOOD GDNS,RUSHTON RD,Local,Toronto and East York,12,43.682945,-79.42839,Intersection,At Intersection,Stop Sign,Clear,Dark,Dry,Fatal,Pedestrian Collisions,Pedestrian,77,Fatal
1205835,2010,2010/12/05 05:00:00+00,421,422 BRIMORTON DR,Non-Fatal,Collector,Scarborough,24,43.769045,-79.23759,Mid-Block,Intersection Related,No Control,Clear,Dark,Dry,Fatal,SMV Other,Driver,22,Fatal
1206992,2010,2010/12/11 05:00:00+00,1935,ST CLAIR AVE E,DANFORTH RD,Major Arterial,Scarborough,20,43.716845,-79.25989,Intersection,At Intersection,Traffic Signal,Clear,Dark,Dry,Fatal,Pedestrian Collisions,Pedestrian,55,Non-Fatal
1207370,2010,2010/12/14 05:00:00+00,216,KINGSTON RD,ST QUENTIN AVE,Major Arterial,Scarborough,20,43.719145,-79.23929,Mid-Block,Intersection Related,No Control,Snow,Dark,Packed Snow,Fatal,SMV Other,Driver,33,Fatal
1208694,2010,2010/12/18 05:00:00+00,2256,MCCOWAN RD,MELDAZY DR,Major Arterial,Scarborough,2124,43.763845,-79.24839,Mid-Block,Intersection Related,No Control,Clear,Dark,Dry,Fatal,Approaching,Driver,55,Fatal
1209207,2010,2010/12/23 05:00:00+00,2027,BATHURST ST,BRIDGMAN AVE,Major Arterial,Toronto and East York,1211,43.673945,-79.41469,Mid-Block,Intersection Related,No Control,Clear,Dark,Dry,Fatal,Pedestrian Collisions,Pedestrian,42,Fatal
1209440,2010,2010/12/28 05:00:00+00,1734,STEELES AVE E,SILVER STAR BLVD,Major Arterial,Scarborough,22,43.825345,-79.29999,Intersection,At Intersection,Traffic Signal,Snow,Dark,Wet,Fatal,Pedestrian Collisions,Pedestrian,30,Non-Fatal
1212031,2011,2011/01/11 05:00:00+00,1023,QUEEN ST W,BATHURST ST,Major Arterial,Toronto and East York,10,43.647245,-79.40389,Intersection,At Intersection,No Control,Clear,Daylight,Wet,Fatal,Pedestrian Collisions,Pedestrian,72,Non-Fatal
1213866,2011,2011/01/21 05:00:00+00,519,DUFFERIN ST,NORTON AVE W,Major Arterial,Toronto and East York,9,43.678645,-79.44329,Intersection,Intersection Related,No Control,Snow,Dark,Slush,Fatal,Pedestrian Collisions,Pedestrian,77,Fatal
1214725,2011,2011/01/25 05:00:00+00,2058,BATHURST ST,FOREST RIDGE DR,Major Arterial,North York,8,43.706645,-79.42669,Mid-Block,Intersection Related,No Control,Clear,Dark,Wet,Fatal,Pedestrian Collisions,Pedestrian,77,Fatal
1215284,2011,2011/01/29 05:00:00+00,0,BLOOR ST W,CONCORD AVE,Major Arterial,Toronto and East York,9,43.661745,-79.42689,Intersection,At Intersection,No Control,Clear,Dark,Dry,Fatal,Pedestrian Collisions,Pedestrian,64,Non-Fatal
1216987,2011,2011/02/10 05:00:00+00,828,DUNDAS ST W,NEILSON DR,Major Arterial,Etobicoke York,23,43.627345,-79.56239,Intersection,At Intersection,Traffic Signal,Clear,Daylight,Dry,Fatal,Pedestrian Collisions,Pedestrian,55,Non-Fatal
1224710,2011,2011/03/24 04:00:00+00,2225,SHEPPARD AVE E,MURISON BLVD,Major Arterial,Scarborough,25,43.799145,-79.21289,Intersection,At Intersection,Traffic Signal,Clear,Dark,Dry,Fatal,Pedestrian Collisions,Pedestrian,32,Non-Fatal
1224921,2011,2011/03/28 04:00:00+00,1152,NORTH QUEEN ST,ATOMIC AVE,Minor Arterial,Etobicoke York,3,43.621845,-79.54319,Mid-Block,Intersection Related,No Control,Clear,Daylight,Dry,Fatal,Approaching,Driver,72,Fatal
1230701,2011,2011/04/30 04:00:00+00,1837,F G GARDINER XY Expr E,CHERRY ST,Major Arterial,Toronto and East York,10,43.649045,-79.35619,Intersection,Intersection Related,No Control,Clear,Daylight,Dry,Fatal,SMV Other,Motorcycle Driver,20,Fatal
1237771,2011,2011/06/11 04:00:00+00,1308,DEWLANE DR,BATHURST ST,Major Arterial,North York,618,43.785945,-79.44589,Intersection,Intersection Related,No Control,Clear,Daylight,Dry,Fatal,Pedestrian Collisions,Pedestrian,82,Fatal
1239243,2011,2011/06/17 04:00:00+00,1432,WEDGEWOOD DR,YONGE ST,Major Arterial,North York,18,43.788945,-79.41779,Intersection,At Intersection,Stop Sign,Clear,Daylight,Dry,Fatal,Pedestrian Collisions,Pedestrian,7,Fatal
1241204,2011,2011/06/29 04:00:00+00,1135,STEELES AVE W,BATHURST ST,Major Arterial,North York,618,43.792345,-79.44589,Intersection,Intersection Related,No Control,Clear,Daylight,Dry,Fatal,Pedestrian Collisions,Pedestrian,32,Fatal
1241592,2011,2011/07/01 04:00:00+00,2229,WARDEN AVE,HUNTINGWOOD DR,Major Arterial,Scarborough,22,43.786906,-79.311565,Mid-Block,Intersection Related,No Control,Clear,Dark,Dry,Fatal,Pedestrian Collisions,Pedestrian,58,Fatal
1242674,2011,2011/07/08 04:00:00+00,414,BLACK CREEK DR,LAWRENCE AVE W,Major Arterial,Etobicoke York,5,43.707345,-79.49739,Mid-Block,Intersection Related,No Control,Clear,Dark,Dry,Fatal,SMV Other,Driver,22,Fatal
1244328,2011,2011/07/16 04:00:00+00,1215,LAWRENCE AVE W,ROYAL YORK RD,Minor Arterial,Etobicoke York,2,43.696145,-79.53269,Intersection,At Intersection,Traffic Signal,Clear,Daylight,Dry,Fatal,SMV Other,Passenger,72,Fatal
1246736,2011,2011/07/24 04:00:00+00,1349,LAWRENCE AVE E,OVERTURE RD,Major Arterial,Scarborough,24,43.765445,-79.19949,Intersection,At Intersection,Traffic Signal,Clear,Daylight,Dry,Fatal,Approaching,Driver,32,Fatal
1246967,2011,2011/08/02 04:00:00+00,1236,LAKE SHORE BLVD W,EIGHTH ST,Major Arterial,Etobicoke York,3,43.600445,-79.50639,Intersection,At Intersection,No Control,Clear,Daylight,Dry,Fatal,Pedestrian Collisions,Pedestrian,85,Non-Fatal
1247766,2011,2011/08/05 04:00:00+00,902,GREENWOOD AVE,PLAINS RD,Collector,Toronto and East York,14,43.693845,-79.33849,Intersection,At Intersection,Stop Sign,Clear,Daylight,Dry,Fatal,Cyclist Collisions,Cyclist,82,Fatal
1247862,2011,2011/08/07 04:00:00+00,1154,DIXON RD,GOLFWOOD HTS Heig,Major Arterial,Etobicoke York,12,43.698545,-79.53989,Intersection,At Intersection,Traffic Signal,Clear,Daylight,Dry,Fatal,Turning Movement,Motorcycle Driver,72,Non-Fatal
1248931,2011,2011/08/13 04:00:00+00,1800,28 REGATTA CRES,Non-Fatal,Local,North York,18,43.789345,-79.44389,Intersection,Intersection Related,No Control,Clear,Daylight,Dry,Fatal,Pedestrian Collisions,Pedestrian,77,Fatal
1249510,2011,2011/08/16 04:00:00+00,606,374 BROCK AVE,PUBLIC LANE,Laneway,Toronto and East York,9,43.652745,-79.43739,Park,Intersection Related,Stop Sign,Rain,Dark,Slush,Non-Fatal,Turning Movement,Passenger,72,Non-Fatal
1250553,2011,2011/08/22 04:00:00+00,551,ROYAL YORK RD,HARTFIELD RD,Minor Arterial,Etobicoke York,2,43.667145,-79.52009,Intersection,Intersection Related,No Control,Clear,Dark,Dry,Fatal,SMV Other,Driver,52,Fatal
1252228,2011,2011/08/30 04:00:00+00,1438,LAWRENCE AVE E,E OF DVP ON RAMP Aven,Major Arterial,North York,16,43.740245,-79.32799,Mid-Block,Intersection Related,No Control,Clear,Daylight,Dry,Fatal,Rear End,Passenger,42,Fatal
1252379,2011,2011/09/01 04:00:00+00,1540,MIDLAND AVE,BAYLAWN DR,Major Arterial,Scarborough,2223,43.800545,-79.28489,Mid-Block,Intersection Related,No Control,Clear,Daylight,Dry,Fatal,SMV Other,Driver,37,Fatal
1253623,2011,2011/09/12 04:00:00+00,1316,STEELES AVE W,STEINWAY BLVD,Major Arterial,Etobicoke York,1,43.753945,-79.62099,Mid-Block,Intersection Related,No Control,Clear,Daylight,Dry,Fatal,Turning Movement,Driver,63,Fatal
1255565,2011,2011/09/23 04:00:00+00,1912,MARTIN GROVE Road,DIXON Road,Major Arterial,Etobicoke York,12,43.691545,-79.57079,Intersection,At Intersection,Traffic Signal,Rain,Dark,Wet,Fatal,Pedestrian Collisions,Pedestrian,7,Non-Fatal
1258189,2011,2011/10/10 04:00:00+00,540,KENNEDY RD,FINCH AVE E,Major Arterial,Scarborough,22,43.801245,-79.29659,Intersection,At Intersection,Traffic Signal,Clear,Dark,Slush,Non-Fatal,Turning Movement,Passenger,72,Non-Fatal
1259602,2011,2011/10/18 04:00:00+00,548,WILSON AVE,ALLINGHAM GDNS,Major Arterial,North York,6,43.735545,-79.44279,Intersection,At Intersection,No Control,Clear,Dark,Slush,Non-Fatal,Turning Movement,Passenger,72,Non-Fatal
1260146,2011,2011/10/21 04:00:00+00,630,SPADINA AVE W,KING ST W,Major Arterial,Toronto and East York,10,43.645445,-79.39499,Intersection,At Intersection,Traffic Signal,Clear,Dark,Dry,Fatal,Pedestrian Collisions,Pedestrian,72,Non-Fatal
1263147,2011,2011/11/07 05:00:00+00,1134,DUNDAS ST W,STERLING RD,Minor Arterial,Toronto and East York,9,43.650645,-79.44299,Intersection,At Intersection,Stop Sign,Clear,Daylight,Dry,Fatal,Cyclist Collisions,Cyclist,28,Non-Fatal
1263764,2011,2011/11/10 05:00:00+00,1111,DON VALLEY PARKWAY  S,BAYVIEW BLOOR DVP RAMP,Major Arterial,Toronto and East York,14,43.682345,-79.36239,Mid-Block,Intersection Related,No Control,Clear,Daylight,Dry,Fatal,SMV Other,Driver,77,Fatal
1266990,2011,2011/12/01 05:00:00+00,102,JANE ST,ELLIS AVE,Major Arterial,Etobicoke York,5,43.702145,-79.50359,Intersection,Intersection Related,No Control,Clear,Dark,Slush,Non-Fatal,Turning Movement,Passenger,72,Non-Fatal
1267274,2011,2011/12/02 05:00:00+00,1830,LAWRENCE AVE E,TOWNLEY AVE,Major Arterial,Scarborough,21,43.742645,-79.30729,Intersection,At Intersection,No Control,Clear,Dusk,Slush,Non-Fatal,Turning Movement,Passenger,72,Non-Fatal
1270884,2011,2011/12/21 05:00:00+00,706,JANE ST,DRIFTWOOD AVE,Major Arterial,Etobicoke York,7,43.765898,-79.519672,Intersection,At Intersection,Traffic Signal,Rain,Dark,Slush,Non-Fatal,Turning Movement,Passenger,72,Non-Fatal
1271163,2011,2011/12/23 05:00:00+00,547,LAWRENCE AVE E,CURLEW DR,Major Arterial,North York,16,43.741145,-79.31929,Intersection,At Intersection,Traffic Signal,Clear,Dark,Slush,Non-Fatal,Turning Movement,Passenger,72,Non-Fatal
1275814,2012,2012/01/12 05:00:00+00,558,NEILSON RD,FINCH AVE E,Minor Arterial,Scarborough,2325,43.816245,-79.22759,Intersection,Intersection Related,Traffic Signal,Rain,Dark,Slush,Non-Fatal,Turning Movement,Passenger,72,Non-Fatal
1274722,2012,2012/01/12 05:00:00+00,2110,FOREST GROVE DR,PAGE AVE,Local,North York,17,43.779645,-79.37889,Mid-Block,Intersection Related,No Control,Clear,Dark,Slush,Non-Fatal,Turning Movement,Passenger,72,Non-Fatal
1276186,2012,2012/01/20 05:00:00+00,2214,SENECA HILL DR,DON MILLS RD,Collector,North York,17,43.790045,-79.35519,Mid-Block,Intersection Related,No Control,Snow,Dark,Packed Snow,Fatal,SMV Other,Driver,53,Fatal
1277329,2012,2012/01/26 05:00:00+00,903,DIXON RD,ISLINGTON AVE,Major Arterial,Etobicoke York,12,43.697045,-79.54669,Intersection,At Intersection,Traffic Signal,Clear,Daylight,Wet,Fatal,Turning Movement,Passenger,17,Non-Fatal
1278086,2012,2012/01/30 05:00:00+00,1428,STEELES AVE W,ISLINGTON AVE,Major Arterial,Etobicoke York,7,43.764346,-79.574893,Intersection,At Intersection,Traffic Signal,Clear,Daylight,Dry,Fatal,Turning Movement,Driver,14,Non-Fatal
1279209,2012,2012/02/06 05:00:00+00,233,F G GARDINER XY  E,DUFFERIN ST,Major Arterial,Toronto and East York,4,43.632643,-79.429286,Mid-Block,Intersection Related,No Control,Clear,Dark,Slush,Non-Fatal,Turning Movement,Passenger,72,Non-Fatal
1285342,2012,2012/03/21 04:00:00+00,2215,JANE ST,NICKLE ST,Major Arterial,Etobicoke York,5,43.691545,-79.50099,Intersection,Intersection Related,No Control,Clear,Dark,Slush,Non-Fatal,Turning Movement,Passenger,72,Non-Fatal
1286941,2012,2012/04/02 04:00:00+00,555,FINCH AVE W,DRIFTWOOD AVE,Major Arterial,Etobicoke York,7,43.758245,-79.51239,Mid-Block,Intersection Related,No Control,Clear,Dawn,Slush,Non-Fatal,Turning Movement,Passenger,72,Non-Fatal
1287084,2012,2012/04/03 04:00:00+00,230,MOUNT PLEASANT RD,STIBBARD AVE,Major Arterial,North York,15,43.716945,-79.39359,Intersection,Intersection Related,No Control,Clear,Dark,Dry,Fatal,SMV Other,Passenger,13,Fatal
1289974,2012,2012/04/19 04:00:00+00,1203,MORNINGSIDE AVE,MILNER AVE,Major Arterial,Scarborough,25,43.800745,-79.19929,Mid-Block,Intersection Related,No Control,Clear,Daylight,Dry,Fatal,SMV Other,Driver,52,Fatal
1290105,2012,2012/04/20 04:00:00+00,1447,DON VALLEY PARKWAY  N,GERRARD ST E,Major Arterial,Toronto and East York,14,43.665145,-79.35589,Mid-Block,Intersection Related,No Control,Clear,Daylight,Dry,Fatal,SMV Other,Motorcycle Driver,37,Fatal
1290199,2012,2012/04/21 04:00:00+00,2050,MORNINGSIDE AVE,MILNER AVE,Major Arterial,Scarborough,25,43.800245,-79.19909,Intersection,At Intersection,Traffic Signal,Clear,Dark,Slush,Non-Fatal,Turning Movement,Passenger,72,Non-Fatal
1292918,2012,2012/05/07 04:00:00+00,801,STEELES AVE E,BIRCHMOUNT RD,Major Arterial,Scarborough,22,43.821345,-79.31689,Intersection,At Intersection,Traffic Signal,Clear,Daylight,Dry,Fatal,Pedestrian Collisions,Pedestrian,3,Non-Fatal
1293835,2012,2012/05/11 04:00:00+00,1239,DUPLEX AVE,ANDERSON AVE,Collector,Toronto and East York,12,43.704245,-79.40049,Intersection,At Intersection,Stop Sign,Clear,Daylight,Dry,Fatal,Pedestrian Collisions,Pedestrian,26,Non-Fatal
1294403,2012,2012/05/15 04:00:00+00,1426,WESTON RD,STEELES AVE W,Major Arterial,Etobicoke York,7,43.770245,-79.54649,Intersection,At Intersection,Traffic Signal,Clear,Daylight,Dry,Fatal,Pedestrian Collisions,Pedestrian,75,Non-Fatal
1295871,2012,2012/05/27 04:00:00+00,1240,22 DELHI AVE,Non-Fatal,Local,North York,8,43.742343,-79.418292,Intersection,Intersection Related,No Control,Clear,Daylight,Dry,Fatal,Pedestrian Collisions,Pedestrian,82,Fatal
1298038,2012,2012/06/08 04:00:00+00,1520,LAWRENCE AVE E,KARL FRASER  RD,Major Arterial,North York,16,43.736845,-79.34499,Intersection,Intersection Related,No Control,Clear,Daylight,Dry,Fatal,Turning Movement,Motorcycle Driver,42,Fatal
1298952,2012,2012/06/14 04:00:00+00,738,ADELAIDE ST W,BRANT ST,Major Arterial,Toronto and East York,10,43.646245,-79.39819,Intersection,At Intersection,Traffic Signal,Clear,Daylight,Dry,Fatal,Pedestrian Collisions,Pedestrian,72,Non-Fatal
1302631,2012,2012/07/08 04:00:00+00,1855,SHEPPARD AVE W,WILSON HEIGHTS BLVD,Major Arterial,North York,6,43.751645,-79.45669,Intersection,At Intersection,Traffic Signal,Clear,Daylight,Dry,Fatal,Pedestrian Collisions,Pedestrian,72,Non-Fatal
1302903,2012,2012/07/09 04:00:00+00,907,ACE LANE,WOLSELEY ST,Local,Toronto and East York,10,43.647745,-79.40369,Mid-Block,At Intersection,No Control,Clear,Daylight,Dry,Fatal,SMV Other,Passenger,82,Fatal
1304055,2012,2012/07/13 04:00:00+00,2151,EGLINTON AVE E,BRIMLEY RD,Major Arterial,Scarborough,2120,43.736445,-79.24899,Mid-Block,Intersection Related,No Control,Clear,Dark,Slush,Non-Fatal,Turning Movement,Passenger,72,Non-Fatal
1307650,2012,2012/07/27 04:00:00+00,2133,KINGSTON RD,LAWRENCE AVE E,Major Arterial,Scarborough,24,43.767646,-79.189586,Intersection,At Intersection,Traffic Signal,Clear,Dusk,Slush,Non-Fatal,Turning Movement,Passenger,72,Non-Fatal
1307456,2012,2012/07/28 04:00:00+00,1224,HIGHWAY 27  N,HARNESS RD,Major Arterial,Etobicoke York,1,43.720045,-79.59679,Intersection,Intersection Related,No Control,Clear,Daylight,Dry,Fatal,Pedestrian Collisions,Pedestrian,35,Fatal
1307861,2012,2012/07/30 04:00:00+00,1623,NEILSON RD,OAKMEADOW BLVD,Minor Arterial,Scarborough,24,43.790545,-79.21259,Mid-Block,Intersection Related,No Control,Clear,Daylight,Dry,Fatal,SMV Other,Driver,19,Fatal
1311119,2012,2012/08/21 04:00:00+00,940,FINCH AVE W,YONGE ST,Major Arterial,North York,18,43.779545,-79.41639,Mid-Block,At Intersection,No Control,Clear,Daylight,Dry,Fatal,Pedestrian Collisions,Pedestrian,48,Fatal
1311464,2012,2012/08/23 04:00:00+00,1627,ALLIANCE AVE,ROCKCLIFFE BLVD,Collector,Etobicoke York,5,43.676943,-79.489391,Intersection,At Intersection,Traffic Signal,Clear,Daylight,Dry,Fatal,Angle,Motorcycle Driver,42,Fatal
1311644,2012,2012/08/25 04:00:00+00,810,CARLTON ST,SHERBOURNE ST,Minor Arterial,Toronto and East York,13,43.663245,-79.37259,Mid-Block,Intersection Related,No Control,Clear,Daylight,Dry,Fatal,Pedestrian Collisions,Pedestrian,27,Fatal
1311647,2012,2012/08/25 04:00:00+00,2350,MARILAKE DR,SUMMERGLADE DR,Local,Scarborough,23,43.780945,-79.27089,Mid-Block,Intersection Related,No Control,Clear,Dark,Slush,Non-Fatal,Turning Movement,Passenger,72,Non-Fatal
1314089,2012,2012/09/10 04:00:00+00,943,3133 BAYVIEW AVE,BYNG AVE,Major Arterial,North York,1817,43.782045,-79.39149,Intersection,Intersection Related,No Control,Clear,Daylight,Dry,Fatal,Pedestrian Collisions,Pedestrian,77,Fatal
1314296,2012,2012/09/11 04:00:00+00,840,GLENGROVE AVE,MARLEE AVE,Minor Arterial,North York,8,43.710745,-79.44449,Intersection,At Intersection,Stop Sign,Clear,Daylight,Dry,Fatal,Angle,Motorcycle Driver,41,Fatal
1315100,2012,2012/09/14 04:00:00+00,102,F G GARDINER XY  E,SOUTH KINGSWAY,Major Arterial,Toronto and East York,4,43.634787,-79.470248,Mid-Block,Intersection Related,No Control,Clear,Dark,Slush,Non-Fatal,Turning Movement,Passenger,72,Non-Fatal
1316338,2012,2012/09/22 04:00:00+00,1845,264 ATTWELL DR,Non-Fatal,Collector,Etobicoke York,1,43.695545,-79.58959,Mid-Block,Intersection Related,No Control,Clear,Daylight,Dry,Fatal,Pedestrian Collisions,Pedestrian,18,Fatal
1318483,2012,2012/10/05 04:00:00+00,1455,JANE ST,CORBETT AVE,Major Arterial,Etobicoke York,5,43.670245,-79.49319,Intersection,Intersection Related,No Control,Clear,Daylight,Dry,Fatal,SMV Other,Motorcycle Driver,37,Fatal
1319536,2012,2012/10/14 04:00:00+00,410,ROGERS RD,OLD WESTON RD,Minor Arterial,Etobicoke York,59,43.681845,-79.46769,Intersection,At Intersection,Traffic Signal,Rain,Dark,Slush,Non-Fatal,Turning Movement,Passenger,72,Non-Fatal
1321027,2012,2012/10/20 04:00:00+00,518,DON VALLEY PARKWAY  S,SPANBRIDGE RD,Non-Fatal,North York,16,43.714343,-79.325488,Mid-Block,Intersection Related,No Control,Clear,Dark,Slush,Non-Fatal,Turning Movement,Passenger,72,Non-Fatal
1321216,2012,2012/10/21 04:00:00+00,325,MCNICOLL AVE,BIRCHMOUNT RD,Minor Arterial,Scarborough,22,43.807944,-79.314189,Mid-Block,At Intersection,No Control,Clear,Dark,Slush,Non-Fatal,Turning Movement,Passenger,72,Non-Fatal
1323544,2012,2012/11/01 04:00:00+00,652,LAWRENCE AVE W,CORONA ST,Major Arterial,North York,8,43.714145,-79.45329,Mid-Block,Intersection Related,No Control,Rain,Dark,Wet,Fatal,Pedestrian Collisions,Pedestrian,32,Fatal
1324513,2012,2012/11/07 05:00:00+00,1437,RICHMOND ST W,UNIVERSITY AVE,Major Arterial,Toronto and East York,10,43.650045,-79.38629,Intersection,At Intersection,Traffic Signal,Clear,Daylight,Dry,Fatal,Cyclist Collisions,Cyclist,72,Non-Fatal
1327099,2012,2012/11/23 05:00:00+00,643,DAVENPORT RD,LANSDOWNE AVE,Minor Arterial,Toronto and East York,9,43.671546,-79.448291,Intersection,At Intersection,Traffic Signal,Clear,Dark,Slush,Non-Fatal,Turning Movement,Passenger,72,Non-Fatal
1327765,2012,2012/11/27 05:00:00+00,1720,MIDLAND AVE,KILCULLEN CASTLE GT,Major Arterial,Scarborough,2223,43.809645,-79.28999,Intersection,Intersection Related,No Control,Clear,Dark,Slush,Non-Fatal,Turning Movement,Passenger,72,Non-Fatal
1329059,2012,2012/12/03 05:00:00+00,1507,ELM RD,FatalIRLAWN AVE,Collector,North York,8,43.728645,-79.41439,Intersection,At Intersection,Stop Sign,Clear,Daylight,Dry,Fatal,Pedestrian Collisions,Pedestrian,43,Fatal
1331849,2012,2012/12/18 05:00:00+00,2100,KINGSTON RD,BEECHGROVE DR,Major Arterial,Scarborough,25,43.776445,-79.17369,Intersection,At Intersection,No Control,Clear,Dark,Dry,Fatal,Pedestrian Collisions,Pedestrian,78,Fatal
1332258,2012,2012/12/20 05:00:00+00,748,SHEPPARD AVE E,ALLANFORD RD,Major Arterial,Scarborough,22,43.782345,-79.29219,Mid-Block,Intersection Related,No Control,Clear,Daylight,Dry,Fatal,Pedestrian Collisions,Pedestrian,43,Fatal
1332261,2012,2012/12/20 05:00:00+00,2015,KENNEDY Rd,TREVERTON Dr,Major Arterial,Scarborough,21,43.733845,-79.26859,Intersection,Intersection Related,No Control,Rain,Dark,Slush,Non-Fatal,Turning Movement,Passenger,72,Non-Fatal
1334928,2013,2013/01/10 05:00:00+00,1851,MORNINGSIDE AVE,OLD FINCH AVE,Minor Arterial,Scarborough,25,43.818743,-79.215091,Intersection,At Intersection,Traffic Signal,Clear,Dark,Dry,Fatal,Turning Movement,Driver,72,Fatal
1335553,2013,2013/01/15 05:00:00+00,1438,YONGE ST,MARLBOROUGH AVE,Major Arterial,Toronto and East York,11,43.679843,-79.390689,Intersection,At Intersection,Stop Sign,Clear,Daylight,Dry,Fatal,Pedestrian Collisions,Pedestrian,72,Non-Fatal
1336921,2013,2013/01/23 05:00:00+00,1556,EGLINTON AVE E,SINNOTT RD,Major Arterial,Scarborough,2120,43.729346,-79.280689,Intersection,At Intersection,Traffic Signal,Clear,Daylight,Dry,Fatal,Pedestrian Collisions,Pedestrian,72,Non-Fatal
1338700,2013,2013/02/02 05:00:00+00,1041,550 BIRCHMOUNT RD,Non-Fatal,Minor Arterial,Scarborough,20,43.711943,-79.270191,Mid-Block,Intersection Related,No Control,Snow,Daylight,Wet,Fatal,Pedestrian Collisions,Pedestrian,38,Fatal
1339180,2013,2013/02/06 05:00:00+00,1045,DUNDAS ST W,SHERIDAN AVE,Minor Arterial,Toronto and East York,9,43.649745,-79.433688,Intersection,At Intersection,Traffic Signal,Clear,Daylight,Dry,Fatal,Pedestrian Collisions,Pedestrian,72,Non-Fatal
